{"Filter":{"BID":"260","Culture":"cs-CZ","Search":null,"Skip":null,"Take":null,"ServiceTypes":["Service"],"OnlySales":null,"OnlyServices":null,"Lat":null,"Lng":null,"Distance":50,"Method":null,"Zipcode":null,"SearchType":0,"WeekDays":null,"ClientDate":"2023-03-25 14:58:45","Hub":null},"SearchedItemsCount":225,"Items":[{"GlobalId":"260-27561","Id":"aae6d67b-878c-411f-bce3-87e2544f08cf","Name":"AB AUTO BREJLA s.r.o.","Address":{"Street":"Automobilová 585","City":"Vestec u Prahy","District":"A","ZIP":"25242","Latitude":49.9847111,"Longitude":14.4888661},"LogoUrl":"https://downloadportal.blob.core.windows.net/k2ngtools/Images/2L3S6YR7YSQJMDDVPPZNNDMMIE======.jpg","HasSales":true,"HasServices":true,"TotalRating":null,"IsOpenNow":false,"OpenHoursNotSpecified":false,"MergedOffset":0,"MergedLength":0,"Driving":null},{"GlobalId":"260-2756A","Id":"cf298e37-ed19-4c20-abde-8d66cb34900a","Name":"AB AUTO BREJLA s.r.o.","Address":{"Street":"Vlasákova 1800","City":"Vlašim","District":"S","ZIP":"25801","Latitude":49.71353325,"Longitude":14.91188586},"LogoUrl":"https://downloadportal.blob.core.windows.net/k2ngtools/Images/2L3S6YR7YSQJMDDVPPZNNDMMIE======.jpg","HasSales":true,"HasServices":true,"TotalRating":null,"IsOpenNow":false,"OpenHoursNotSpecified":false,"MergedOffset":0,"MergedLength":0,"Driving":null},{"GlobalId":"260-30090","Id":"51bf3d23-0d46-4651-85ff-ef04dca7cf61","Name":"AD AUTO Praha s.r.o.","Address":{"Street":"Hornokrčská 2/1947","City":"Praha 4","District":"A","ZIP":"14000","Latitude":50.0393828,"Longitude":14.4574142},"LogoUrl":"https://downloadportal.blob.core.windows.net/k2ngtools/Images/KELGNVCJZGPNRZDXWJQ6AHXTDQ======.jpg","HasSales":false,"HasServices":true,"TotalRating":null,"IsOpenNow":false,"OpenHoursNotSpecified":false,"MergedOffset":0,"MergedLength":0,"Driving":null},{"GlobalId":"260-27782","Id":"2cbec36f-1acd-4749-b876-0032a578aebf","Name":"ADIV, spol. s r.o.","Address":{"Street":"Těšínská 3007/91","City":"Opava","District":"T","ZIP":"74601","Latitude":49.9282433,"Longitude":17.9421706},"LogoUrl":"https://downloadportal.blob.core.windows.net/k2ngtools/Images/LZEUCWHEK7PDGJREJWVQHB4OGE======.jpg","HasSales":true,"HasServices":true,"TotalRating":null,"IsOpenNow":false,"OpenHoursNotSpecified":false,"MergedOffset":0,"MergedLength":0,"Driving":null},{"GlobalId":"260-2778B","Id":"3bf92529-38ad-4525-b356-57b9083b6ae5","Name":"ADIV, spol. s r.o.","Address":{"Street":"Ruská 2880","City":"Ostrava","District":"T","ZIP":"70300","Latitude":49.810152,"Longitude":18.255251},"LogoUrl":"https://downloadportal.blob.core.windows.net/k2ngtools/Images/LZEUCWHEK7PDGJREJWVQHB4OGE======.jpg","HasSales":true,"HasServices":true,"TotalRating":null,"IsOpenNow":false,"OpenHoursNotSpecified":false,"MergedOffset":0,"MergedLength":0,"Driving":null},{"GlobalId":"260-2742C","Id":"f4dbf6fe-0918-41f3-a652-77032437220c","Name":"AGROTEC  a.s.","Address":{"Street":"Lidická 123","City":"Břeclav","District":"B","ZIP":"69002","Latitude":48.7779163,"Longitude":16.8972248},"LogoUrl":"https://downloadportal.blob.core.windows.net/k2ngtools/Images/7ZXKN2K2XQH4RYHYZUDWA7J5P4======.png","HasSales":true,"HasServices":true,"TotalRating":null,"IsOpenNow":false,"OpenHoursNotSpecified":false,"MergedOffset":0,"MergedLength":0,"Driving":null},{"GlobalId":"260-27421","Id":"25db6a9c-0ff9-4442-b97e-cb3162b0ce79","Name":"AGROTEC  a.s.","Address":{"Street":"Brněnská 74","City":"Hustopeče","District":"B","ZIP":"69301","Latitude":48.9480514,"Longitude":16.7287499},"LogoUrl":"https://downloadportal.blob.core.windows.net/k2ngtools/Images/7ZXKN2K2XQH4RYHYZUDWA7J5P4======.png","HasSales":true,"HasServices":true,"TotalRating":null,"IsOpenNow":false,"OpenHoursNotSpecified":false,"MergedOffset":0,"MergedLength":0,"Driving":null},{"GlobalId":"260-2742D","Id":"4310005e-d71a-4621-b550-deb7b1a0d23a","Name":"AGROTEC  a.s.","Address":{"Street":"Chrlická 1153","City":"Brno, Modřice","District":"B","ZIP":"66442","Latitude":49.132895,"Longitude":16.6291628},"LogoUrl":"https://downloadportal.blob.core.windows.net/k2ngtools/Images/7ZXKN2K2XQH4RYHYZUDWA7J5P4======.png","HasSales":true,"HasServices":true,"TotalRating":null,"IsOpenNow":false,"OpenHoursNotSpecified":false,"MergedOffset":0,"MergedLength":0,"Driving":null},{"GlobalId":"260-22128","Id":"c904f6a3-549c-4188-9ac0-cf8bcdb8d488","Name":"AK auto Kostelec,s.r.o.","Address":{"Street":"Pražská 1110","City":"Kostelec nad Černými Lesy","District":"S","ZIP":"28163","Latitude":49.9925464,"Longitude":14.8456564},"LogoUrl":null,"HasSales":false,"HasServices":true,"TotalRating":null,"IsOpenNow":false,"OpenHoursNotSpecified":false,"MergedOffset":0,"MergedLength":0,"Driving":null},{"GlobalId":"260-28860","Id":"3b75bea1-163a-4bda-bb27-1025e41193ee","Name":"AMOND,  spol. s r.o.","Address":{"Street":"Smečenská 889","City":"Kladno","District":"S","ZIP":"27204","Latitude":50.1405,"Longitude":14.0640325},"LogoUrl":"https://downloadportal.blob.core.windows.net/k2ngtools/Images/RMN6HTSXEFMELATKFS5JPSQNCI======.png","HasSales":true,"HasServices":true,"TotalRating":null,"IsOpenNow":false,"OpenHoursNotSpecified":false,"MergedOffset":0,"MergedLength":0,"Driving":null},{"GlobalId":"260-24139","Id":"42513491-c893-46d3-abf4-a1fcd2521ab4","Name":"AR SERVIS s.r.o.","Address":{"Street":"Jarošovská 869/II","City":"Jindřichův Hradec","District":"C","ZIP":"37701","Latitude":49.1546397,"Longitude":15.01667976},"LogoUrl":null,"HasSales":true,"HasServices":true,"TotalRating":null,"IsOpenNow":false,"OpenHoursNotSpecified":false,"MergedOffset":0,"MergedLength":0,"Driving":null},{"GlobalId":"260-24210","Id":"c3291f45-c30e-4567-8d71-c7cfcb09f728","Name":"ARAVER CZ, s.r.o.","Address":{"Street":"Zerzavice 2144","City":"Staré Město","District":"Z","ZIP":"68603","Latitude":49.074215,"Longitude":17.4567911},"LogoUrl":"https://downloadportal.blob.core.windows.net/k2ngtools/Images/MKD6IWPTYKKEJN64YVSYV3BB2A======.jpg","HasSales":true,"HasServices":true,"TotalRating":null,"IsOpenNow":false,"OpenHoursNotSpecified":false,"MergedOffset":0,"MergedLength":0,"Driving":null},{"GlobalId":"260-2421C","Id":"09ba22c7-d51e-434f-b4dd-fc50d4ce36c8","Name":"ARAVER CZ, s.r.o.","Address":{"Street":"J. Plesla 556","City":"Vlčnov","District":"Z","ZIP":"68761","Latitude":49.021196,"Longitude":17.5720096},"LogoUrl":"https://downloadportal.blob.core.windows.net/k2ngtools/Images/MKD6IWPTYKKEJN64YVSYV3BB2A======.jpg","HasSales":false,"HasServices":true,"TotalRating":null,"IsOpenNow":false,"OpenHoursNotSpecified":false,"MergedOffset":0,"MergedLength":0,"Driving":null},{"GlobalId":"260-28649","Id":"8ff3fe5f-56d3-4950-be8e-4403ef4a33f2","Name":"AUTO - BAYER, s.r.o.","Address":{"Street":"Bučovická 299","City":"Slavkov u Brna","District":"B","ZIP":"68401","Latitude":49.1523557,"Longitude":16.8933249},"LogoUrl":"https://downloadportal.blob.core.windows.net/k2ngtools/Images/TJS2GO255YJ234NCPBJL23KAWY======.PNG","HasSales":true,"HasServices":true,"TotalRating":null,"IsOpenNow":false,"OpenHoursNotSpecified":false,"MergedOffset":0,"MergedLength":0,"Driving":null},{"GlobalId":"260-22951","Id":"88bc4584-977e-4648-ba66-65d22c348359","Name":"AUTO  DUBINA, a. s.","Address":{"Street":"Horní  3023/122","City":"Ostrava - Dubina","District":"T","ZIP":"70030","Latitude":49.7735131,"Longitude":18.2455983},"LogoUrl":"https://downloadportal.blob.core.windows.net/k2ngtools/Images/6S5HO3HGCOAPJQZJHODVNRVBPI======.png","HasSales":true,"HasServices":true,"TotalRating":null,"IsOpenNow":false,"OpenHoursNotSpecified":false,"MergedOffset":0,"MergedLength":0,"Driving":null},{"GlobalId":"260-2303A","Id":"7b44ab91-e084-46dc-9484-37ea0471bb04","Name":"AUTO - Evžen Myslivec s.r.o.","Address":{"Street":"Pražská 314","City":"Slaný","District":"S","ZIP":"27401","Latitude":50.22641203,"Longitude":14.10583913},"LogoUrl":"https://downloadportal.blob.core.windows.net/k2ngtools/Images/33OVYDPAV2KV334FNHHVFEPKMQ======.png","HasSales":true,"HasServices":true,"TotalRating":null,"IsOpenNow":false,"OpenHoursNotSpecified":false,"MergedOffset":0,"MergedLength":0,"Driving":null},{"GlobalId":"260-23035","Id":"fe6dba41-6fde-4c11-bdd2-e0e3ea6e6ecb","Name":"AUTO - Evžen Myslivec s.r.o.","Address":{"Street":"Václava Majera 2666","City":"Louny","District":"U","ZIP":"44001","Latitude":50.34931836,"Longitude":13.81540686},"LogoUrl":"https://downloadportal.blob.core.windows.net/k2ngtools/Images/33OVYDPAV2KV334FNHHVFEPKMQ======.png","HasSales":true,"HasServices":true,"TotalRating":null,"IsOpenNow":false,"OpenHoursNotSpecified":false,"MergedOffset":0,"MergedLength":0,"Driving":null},{"GlobalId":"260-2408A","Id":"42b0e039-b346-4da2-9d95-6c6d27c5eb63","Name":"Auto - Poly spol. s r.o.","Address":{"Street":"Novohospodská 148","City":"Příbram","District":"S","ZIP":"26101","Latitude":49.6914674,"Longitude":14.0332425},"LogoUrl":"https://downloadportal.blob.core.windows.net/k2ngtools/Images/6Y7BNTKTR3YGG7AHX2SWUNSFSQ======.jpg","HasSales":true,"HasServices":true,"TotalRating":null,"IsOpenNow":false,"OpenHoursNotSpecified":false,"MergedOffset":0,"MergedLength":0,"Driving":null},{"GlobalId":"260-24082","Id":"56bd01db-44b0-4226-a4fb-9ac61664a310","Name":"Auto - Poly spol. s r.o.","Address":{"Street":"Pod Harfou 904/1","City":"Praha 9","District":"A","ZIP":"19000","Latitude":50.1043533,"Longitude":14.5036294},"LogoUrl":"https://downloadportal.blob.core.windows.net/k2ngtools/Images/6Y7BNTKTR3YGG7AHX2SWUNSFSQ======.jpg","HasSales":true,"HasServices":true,"TotalRating":null,"IsOpenNow":false,"OpenHoursNotSpecified":false,"MergedOffset":0,"MergedLength":0,"Driving":null},{"GlobalId":"260-20389","Id":"436aa5e7-391a-42a6-927e-d9bd8f7f3ca9","Name":"AUTO . . .   s.r.o.","Address":{"Street":"Nádražní 2118/67","City":"Žďár nad Sázavou","District":"J","ZIP":"59101","Latitude":49.5557397,"Longitude":15.9387139},"LogoUrl":"https://downloadportal.blob.core.windows.net/k2ngtools/Images/OQGVLT2S4CFYGNHT2BZCVSZWQ4======.jpg","HasSales":true,"HasServices":true,"TotalRating":null,"IsOpenNow":false,"OpenHoursNotSpecified":false,"MergedOffset":0,"MergedLength":0,"Driving":null},{"GlobalId":"260-21342","Id":"8bbc7c7d-8246-4298-9f2e-850348b18214","Name":"Auto Anex s.r.o.","Address":{"Street":"Žerotínova 378","City":"Děčín III","District":"U","ZIP":"40501","Latitude":50.77046146,"Longitude":14.21620131},"LogoUrl":null,"HasSales":false,"HasServices":true,"TotalRating":null,"IsOpenNow":false,"OpenHoursNotSpecified":false,"MergedOffset":0,"MergedLength":0,"Driving":null},{"GlobalId":"260-22840","Id":"95976a2c-4b07-4be7-b935-88fe6faefced","Name":"AUTO Brandýs n/L. s.r.o.","Address":{"Street":"Rolnická 1928","City":"Brandýs nad Labem – Stará Boleslav","District":"S","ZIP":"25001","Latitude":50.1759581,"Longitude":14.6572839},"LogoUrl":null,"HasSales":true,"HasServices":true,"TotalRating":null,"IsOpenNow":false,"OpenHoursNotSpecified":false,"MergedOffset":0,"MergedLength":0,"Driving":null},{"GlobalId":"260-2205B","Id":"943b997d-9651-4b96-81f5-4aca8bdacb7f","Name":"AUTO BRANKA Mělník","Address":{"Street":"Mladoboleslavská 2862","City":"Mělník","District":"S","ZIP":"27601","Latitude":50.3487672,"Longitude":14.4908622},"LogoUrl":"https://downloadportal.blob.core.windows.net/k2ngtools/Images/MEN7JWBPN3AAB6IG3YXR5OBYZA======.png","HasSales":true,"HasServices":true,"TotalRating":null,"IsOpenNow":false,"OpenHoursNotSpecified":false,"MergedOffset":0,"MergedLength":0,"Driving":null},{"GlobalId":"260-2205A","Id":"c574d67a-bcbe-4f98-9683-5f93be5cdfc3","Name":"AUTO BRANKA Náchod","Address":{"Street":"Českoskalická 1743/I","City":"Náchod","District":"H","ZIP":"54701","Latitude":50.4058713,"Longitude":16.1369741},"LogoUrl":"https://downloadportal.blob.core.windows.net/k2ngtools/Images/MEN7JWBPN3AAB6IG3YXR5OBYZA======.png","HasSales":true,"HasServices":true,"TotalRating":null,"IsOpenNow":false,"OpenHoursNotSpecified":false,"MergedOffset":0,"MergedLength":0,"Driving":null},{"GlobalId":"260-22055","Id":"55ce3294-6976-42be-8f70-3fcb121b36f9","Name":"AUTO BRANKA Praha","Address":{"Street":"Prosecká 817/82","City":"Praha 9","District":"A","ZIP":"19000","Latitude":50.1228206,"Longitude":14.508082},"LogoUrl":"https://downloadportal.blob.core.windows.net/k2ngtools/Images/MEN7JWBPN3AAB6IG3YXR5OBYZA======.png","HasSales":true,"HasServices":true,"TotalRating":null,"IsOpenNow":false,"OpenHoursNotSpecified":false,"MergedOffset":0,"MergedLength":0,"Driving":null},{"GlobalId":"260-20397","Id":"a04e89a7-bc3d-42f0-a656-185fdf72e4d3","Name":"AUTO CB, spol. s r.o.","Address":{"Street":"Nepomucká 487/119","City":"Plzeň","District":"P","ZIP":"32600","Latitude":49.7148689,"Longitude":13.4099919},"LogoUrl":"https://downloadportal.blob.core.windows.net/k2ngtools/Images/6HG6GWHW6ACU6WHK3VG5IPZVMA======.png","HasSales":true,"HasServices":true,"TotalRating":null,"IsOpenNow":false,"OpenHoursNotSpecified":false,"MergedOffset":0,"MergedLength":0,"Driving":null},{"GlobalId":"260-2039A","Id":"df3937e8-bd90-4bc0-9eaf-343d51071bf9","Name":"AUTO CB, spol. s r.o.","Address":{"Street":"Tř. 1. máje 849","City":"Přeštice","District":"P","ZIP":"33401","Latitude":49.580102,"Longitude":13.32694},"LogoUrl":"https://downloadportal.blob.core.windows.net/k2ngtools/Images/6HG6GWHW6ACU6WHK3VG5IPZVMA======.png","HasSales":false,"HasServices":true,"TotalRating":null,"IsOpenNow":false,"OpenHoursNotSpecified":false,"MergedOffset":0,"MergedLength":0,"Driving":null},{"GlobalId":"260-28754","Id":"c2673876-7e9d-4f44-b43c-ca615354e7c5","Name":"AUTO Červený s.r.o.","Address":{"Street":"Hlavní 384/142","City":"Mariánské Lázně","District":"K","ZIP":"35301","Latitude":49.95730829,"Longitude":12.69848943},"LogoUrl":"https://downloadportal.blob.core.windows.net/k2ngtools/Images/I2IUIWW7D3MG6N7O2YLRN3QMXQ======.jpg","HasSales":true,"HasServices":true,"TotalRating":null,"IsOpenNow":false,"OpenHoursNotSpecified":false,"MergedOffset":0,"MergedLength":0,"Driving":null},{"GlobalId":"260-23671","Id":"8b1b11ec-24e1-4eed-ad87-f94e5c15f4a8","Name":"Auto color Design s.r.o.","Address":{"Street":"Staroměstská 3","City":"Bruntál","District":"T","ZIP":"79201","Latitude":49.99223599,"Longitude":17.45538712},"LogoUrl":null,"HasSales":true,"HasServices":true,"TotalRating":null,"IsOpenNow":false,"OpenHoursNotSpecified":false,"MergedOffset":0,"MergedLength":0,"Driving":null},{"GlobalId":"260-21407","Id":"9c948cc6-713b-45c2-87c6-40aa4f25bb8e","Name":"AUTO DOBROVOLNÝ V.M.","Address":{"Street":"Okružní 4720/3","City":"Jihlava","District":"J","ZIP":"58601","Latitude":49.4058318,"Longitude":15.59425056},"LogoUrl":null,"HasSales":true,"HasServices":true,"TotalRating":null,"IsOpenNow":false,"OpenHoursNotSpecified":false,"MergedOffset":0,"MergedLength":0,"Driving":null},{"GlobalId":"260-25526","Id":"7bf71dec-bb19-46b3-b145-fa5310b02232","Name":"AUTO DRYML a.s.","Address":{"Street":"gen. Svobody 658","City":"Pardubice - Rosice","District":"E","ZIP":"53351","Latitude":50.04491762,"Longitude":15.74526966},"LogoUrl":"https://downloadportal.blob.core.windows.net/k2ngtools/Images/C3DF55F7SKF47RT3YJIWZZVYCM======.jpg","HasSales":true,"HasServices":true,"TotalRating":null,"IsOpenNow":false,"OpenHoursNotSpecified":false,"MergedOffset":0,"MergedLength":0,"Driving":null},{"GlobalId":"260-24481","Id":"12e546fa-6758-417f-8773-3eff0598d634","Name":"AUTO ELSO  s.r.o.","Address":{"Street":"Cukrovarská 900/10","City":"Praha 9","District":"A","ZIP":"19600","Latitude":50.15099276,"Longitude":14.51823145},"LogoUrl":"https://downloadportal.blob.core.windows.net/k2ngtools/Images/MSZDNTIYWHUWPHKF23CMZEGQLI======.jpg","HasSales":true,"HasServices":true,"TotalRating":null,"IsOpenNow":false,"OpenHoursNotSpecified":false,"MergedOffset":0,"MergedLength":0,"Driving":null},{"GlobalId":"260-2362A","Id":"a3cb106d-4715-494b-b37b-0083cd1d05fb","Name":"Auto Enge a.s.","Address":{"Street":"U Seřadiště 65/7","City":"Praha 10","District":"A","ZIP":"101 00","Latitude":50.0632878,"Longitude":14.4581083},"LogoUrl":"https://downloadportal.blob.core.windows.net/k2ngtools/Images/KPDDYERLGNHDDM7QHRRNHVAW7Q======.jpg","HasSales":false,"HasServices":true,"TotalRating":null,"IsOpenNow":false,"OpenHoursNotSpecified":false,"MergedOffset":0,"MergedLength":0,"Driving":null},{"GlobalId":"260-23621","Id":"fdd25b76-7dc0-4fa1-905b-076c4bf5ba08","Name":"Auto Enge a.s.","Address":{"Street":"Hodkovická 747/29","City":"Liberec 6","District":"L","ZIP":"460 06","Latitude":50.7434867,"Longitude":15.0617269},"LogoUrl":"https://downloadportal.blob.core.windows.net/k2ngtools/Images/KPDDYERLGNHDDM7QHRRNHVAW7Q======.jpg","HasSales":false,"HasServices":true,"TotalRating":null,"IsOpenNow":false,"OpenHoursNotSpecified":false,"MergedOffset":0,"MergedLength":0,"Driving":null},{"GlobalId":"260-22705","Id":"07e38bb9-99f6-40ce-a521-36c08feb178b","Name":"AUTO GOLDCAR a.s.","Address":{"Street":"Bohdalecká 1416/12","City":"Praha 10","District":"A","ZIP":"10100","Latitude":50.0597545,"Longitude":14.4708395},"LogoUrl":"https://downloadportal.blob.core.windows.net/k2ngtools/Images/ZFOFEWFULZWJ4LF2UN7DEW6MKQ======.jpg","HasSales":true,"HasServices":true,"TotalRating":null,"IsOpenNow":false,"OpenHoursNotSpecified":false,"MergedOffset":0,"MergedLength":0,"Driving":null},{"GlobalId":"260-20095","Id":"2a389962-8908-4a15-b5b4-bb413e37a2b4","Name":"AUTO GREMOS, spol. s r.o.","Address":{"Street":"Zahradní 300","City":"Liberec 11","District":"L","ZIP":"46001","Latitude":50.77438655,"Longitude":15.04012227},"LogoUrl":"https://downloadportal.blob.core.windows.net/k2ngtools/Images/J7SRG34LXW3QSVYCVNRP3PGI24======.png","HasSales":true,"HasServices":true,"TotalRating":null,"IsOpenNow":false,"OpenHoursNotSpecified":false,"MergedOffset":0,"MergedLength":0,"Driving":null},{"GlobalId":"260-29904","Id":"df652445-836d-46b2-a874-ab0dbdccd904","Name":"Auto Hégr, a. s., provozovna Olomouc","Address":{"Street":"Hněvotínská 658/54a","City":"Olomouc","District":"M","ZIP":"77900","Latitude":49.5852379,"Longitude":17.2273511},"LogoUrl":"https://downloadportal.blob.core.windows.net/k2ngtools/Images/XSCN3D7G2DGUU334RHKTRGJNNM======.png","HasSales":true,"HasServices":true,"TotalRating":null,"IsOpenNow":false,"OpenHoursNotSpecified":false,"MergedOffset":0,"MergedLength":0,"Driving":null},{"GlobalId":"260-2990A","Id":"99734887-d8c5-4510-b2e8-9ec0d02b468e","Name":"Auto Hégr, a. s., provozovna Šternberk","Address":{"Street":"Olomoucká 2318/110","City":"Šternberk","District":"M","ZIP":"78501","Latitude":49.71688736,"Longitude":17.28996456},"LogoUrl":"https://downloadportal.blob.core.windows.net/k2ngtools/Images/XSCN3D7G2DGUU334RHKTRGJNNM======.png","HasSales":true,"HasServices":true,"TotalRating":null,"IsOpenNow":false,"OpenHoursNotSpecified":false,"MergedOffset":0,"MergedLength":0,"Driving":null},{"GlobalId":"260-2990B","Id":"eb48cba5-a0ce-4e17-826a-3edc1d6bf060","Name":"Auto Hégr, a. s., provozovna Šumperk","Address":{"Street":"Jesenická 2839/1b","City":"Šumperk","District":"M","ZIP":"78701","Latitude":49.95551706,"Longitude":16.96599126},"LogoUrl":"https://downloadportal.blob.core.windows.net/k2ngtools/Images/XSCN3D7G2DGUU334RHKTRGJNNM======.png","HasSales":true,"HasServices":true,"TotalRating":null,"IsOpenNow":false,"OpenHoursNotSpecified":false,"MergedOffset":0,"MergedLength":0,"Driving":null},{"GlobalId":"260-20575","Id":"55172989-f6f6-4dee-afc7-49c48b6e8e12","Name":"AUTO Hlaváček a.s.","Address":{"Street":"Týnecká 669/5","City":"Olomouc - Holice","District":"M","ZIP":"77900","Latitude":49.57459,"Longitude":17.2996881},"LogoUrl":"https://downloadportal.blob.core.windows.net/k2ngtools/Images/22C2WVAU56LOLGW2MKZBHKGRG4======.jpg","HasSales":true,"HasServices":true,"TotalRating":null,"IsOpenNow":false,"OpenHoursNotSpecified":false,"MergedOffset":0,"MergedLength":0,"Driving":null},{"GlobalId":"260-2057C","Id":"29117ca8-0392-4a86-8eaf-77bcbddce855","Name":"AUTO Hlaváček a.s.","Address":{"Street":"Nedošín 125","City":"Litomyšl","District":"E","ZIP":"57001","Latitude":49.88253436,"Longitude":16.29261196},"LogoUrl":"https://downloadportal.blob.core.windows.net/k2ngtools/Images/22C2WVAU56LOLGW2MKZBHKGRG4======.jpg","HasSales":true,"HasServices":true,"TotalRating":null,"IsOpenNow":false,"OpenHoursNotSpecified":false,"MergedOffset":0,"MergedLength":0,"Driving":null},{"GlobalId":"260-24031","Id":"40485712-d7ca-4e6b-a24c-6ab3568a1386","Name":"Auto Hybeš s.r.o.","Address":{"Street":"Dřenice 122","City":"Dřenice","District":"E","ZIP":"53701","Latitude":49.9838341,"Longitude":15.7471526},"LogoUrl":"https://downloadportal.blob.core.windows.net/k2ngtools/Images/XIGXMRKIK7WCZCYTUQTAUW5MLY======.png","HasSales":true,"HasServices":true,"TotalRating":null,"IsOpenNow":false,"OpenHoursNotSpecified":false,"MergedOffset":0,"MergedLength":0,"Driving":null},{"GlobalId":"260-25910","Id":"a18e87c2-0f46-4d48-af7e-25f85e3e9f69","Name":"AUTO IN s.r.o.","Address":{"Street":"Kutnohorská 217/3","City":"Hradec Králové","District":"H","ZIP":"50004","Latitude":50.20042,"Longitude":15.7794181},"LogoUrl":null,"HasSales":false,"HasServices":true,"TotalRating":null,"IsOpenNow":false,"OpenHoursNotSpecified":false,"MergedOffset":0,"MergedLength":0,"Driving":null},{"GlobalId":"260-22209","Id":"95910790-1eb3-43fe-bf5c-a1c6a7f83c60","Name":"Auto Janák s.r.o.","Address":{"Street":"Královéhradecká 1545","City":"Ústí nad Orlicí","District":"E","ZIP":"56201","Latitude":49.9761619,"Longitude":16.3883081},"LogoUrl":null,"HasSales":false,"HasServices":true,"TotalRating":null,"IsOpenNow":false,"OpenHoursNotSpecified":false,"MergedOffset":0,"MergedLength":0,"Driving":null},{"GlobalId":"260-2923A","Id":"e59b5e84-8219-4e4b-b4e2-9ea3747ee380","Name":"AUTO JAROV Kunratice","Address":{"Street":"Vídeňská 126","City":"Praha 4","District":"A","ZIP":"14800","Latitude":50.0108069,"Longitude":14.4769339},"LogoUrl":"https://downloadportal.blob.core.windows.net/k2ngtools/Images/HXJHQZTIU7EEPJXYMGZDQRMWEY======.jpg","HasSales":true,"HasServices":true,"TotalRating":null,"IsOpenNow":false,"OpenHoursNotSpecified":false,"MergedOffset":0,"MergedLength":0,"Driving":null},{"GlobalId":"260-29238","Id":"29ec40ed-d234-4ade-8202-90e0881e35a1","Name":"AUTO JAROV, s.r.o.","Address":{"Street":"Osiková 2 čp. 2688","City":"Praha 3 - Jarov","District":"A","ZIP":"13000","Latitude":50.090342,"Longitude":14.49930578},"LogoUrl":"https://downloadportal.blob.core.windows.net/k2ngtools/Images/LVLCFE4TUXUYQRSQPE45KN4BTE======.jpg","HasSales":true,"HasServices":true,"TotalRating":null,"IsOpenNow":false,"OpenHoursNotSpecified":false,"MergedOffset":0,"MergedLength":0,"Driving":null},{"GlobalId":"260-24589","Id":"d8701149-d0c1-4653-a87f-3e8deff9cd4a","Name":"AUTO KÁPL s.r.o.","Address":{"Street":"Malé Nepodřice 41","City":"Písek","District":"C","ZIP":"39701","Latitude":49.3067481,"Longitude":14.0955386},"LogoUrl":"https://downloadportal.blob.core.windows.net/k2ngtools/Images/WMBTX2RJU5TTQANUIQFXGR6I2Y======.jpg","HasSales":true,"HasServices":true,"TotalRating":null,"IsOpenNow":false,"OpenHoursNotSpecified":false,"MergedOffset":0,"MergedLength":0,"Driving":null},{"GlobalId":"260-21580","Id":"e207ce91-0e43-45f8-a8ac-53855eff9cd9","Name":"AUTO KOUTEK s.r.o.","Address":{"Street":"Tanvaldská 1141","City":"Liberec","District":"L","ZIP":"46311","Latitude":50.74744371,"Longitude":15.08540869},"LogoUrl":"https://downloadportal.blob.core.windows.net/k2ngtools/Images/FQV7KPECLVIKJO374E3TI72ARI======.jpg","HasSales":true,"HasServices":true,"TotalRating":null,"IsOpenNow":false,"OpenHoursNotSpecified":false,"MergedOffset":0,"MergedLength":0,"Driving":null},{"GlobalId":"260-24864","Id":"faec094e-764f-40a6-8a97-b72d6d882b1c","Name":"AUTO KRALUPY a.s.","Address":{"Street":"V Růžovém údolí 554","City":"Kralupy nad Vltavou","District":"S","ZIP":"27801","Latitude":50.23430135,"Longitude":14.28656101},"LogoUrl":"https://downloadportal.blob.core.windows.net/k2ngtools/Images/FTEJ2PJMPCHUAYQIGRG3PDIZDM======.png","HasSales":true,"HasServices":true,"TotalRating":null,"IsOpenNow":false,"OpenHoursNotSpecified":false,"MergedOffset":0,"MergedLength":0,"Driving":null},{"GlobalId":"260-20761","Id":"885059f8-2174-4417-99bd-4653eea6175a","Name":"Auto MERCIA a.s.","Address":{"Street":"Dašická 1228","City":"Chrudim","District":"E","ZIP":"53701","Latitude":49.9566974,"Longitude":15.7998687},"LogoUrl":"https://downloadportal.blob.core.windows.net/k2ngtools/Images/NRS5ITJSIIOZW3RRVJKOOYSGBQ======.png","HasSales":true,"HasServices":true,"TotalRating":null,"IsOpenNow":false,"OpenHoursNotSpecified":false,"MergedOffset":0,"MergedLength":0,"Driving":null},{"GlobalId":"260-24261","Id":"8b42b810-a91d-4afc-a5b2-29601dc35c34","Name":"AUTO MYSLIVEC  s.r.o.","Address":{"Street":"Hlubanská 741","City":"Podbořany","District":"U","ZIP":"44101","Latitude":50.2286492,"Longitude":13.4074117},"LogoUrl":"https://downloadportal.blob.core.windows.net/k2ngtools/Images/3VJELITDEANR4ORVME5KRGKZKM======.jpg","HasSales":true,"HasServices":true,"TotalRating":null,"IsOpenNow":false,"OpenHoursNotSpecified":false,"MergedOffset":0,"MergedLength":0,"Driving":null},{"GlobalId":"260-25920","Id":"52792a8d-8fac-4657-bb2e-316bd8d3d38c","Name":"Auto Palace Spořilov s.r.o.","Address":{"Street":"Na Chodovci 2457/1","City":"Praha 4","District":"A","ZIP":"14100","Latitude":50.0508881,"Longitude":14.4805781},"LogoUrl":"https://downloadportal.blob.core.windows.net/k2ngtools/Images/ZA4EIX3GEPDO7IS5CAV3D7BNO4======.JPG","HasSales":true,"HasServices":true,"TotalRating":null,"IsOpenNow":true,"OpenHoursNotSpecified":false,"MergedOffset":0,"MergedLength":0,"Driving":null},{"GlobalId":"260-3020A","Id":"bc24695d-f705-44cd-ab2c-9639e2b35139","Name":"Auto Palace Západ s.r.o.","Address":{"Street":"Ke Kopanině 529","City":"Praha -Tuchoměřice","District":"A","ZIP":"25267","Latitude":50.121655,"Longitude":14.2886739},"LogoUrl":"https://downloadportal.blob.core.windows.net/k2ngtools/Images/TUFWKQ6NFH2B3CCAHDTRBIGC4A======.jpg","HasSales":false,"HasServices":true,"TotalRating":null,"IsOpenNow":false,"OpenHoursNotSpecified":false,"MergedOffset":0,"MergedLength":0,"Driving":null},{"GlobalId":"260-30200","Id":"3445c0c3-b521-40fa-9837-5bb91d468e12","Name":"Auto Palace Západ s.r.o.","Address":{"Street":"Chebská 361/55","City":"Karlovy Vary - Dvory","District":"K","ZIP":"36006","Latitude":50.227936,"Longitude":12.832015},"LogoUrl":"https://downloadportal.blob.core.windows.net/k2ngtools/Images/TUFWKQ6NFH2B3CCAHDTRBIGC4A======.jpg","HasSales":false,"HasServices":true,"TotalRating":null,"IsOpenNow":false,"OpenHoursNotSpecified":false,"MergedOffset":0,"MergedLength":0,"Driving":null},{"GlobalId":"260-24279","Id":"9746f9ee-34ec-4424-b0fa-627a134f8ea4","Name":"AUTO RACEK  a. s.","Address":{"Street":"Jihlavská 1917","City":"Havlíčkův Brod","District":"J","ZIP":"58001","Latitude":49.59589288,"Longitude":15.57846308},"LogoUrl":"https://downloadportal.blob.core.windows.net/k2ngtools/Images/PPFVUTVBSEJFSFEGVYPCBKUPVU======.png","HasSales":true,"HasServices":true,"TotalRating":null,"IsOpenNow":false,"OpenHoursNotSpecified":false,"MergedOffset":0,"MergedLength":0,"Driving":null},{"GlobalId":"260-2427B","Id":"4bb48293-1c60-473f-98d8-490c439e9916","Name":"AUTO RACEK a. s.","Address":{"Street":"Humpolecká 1911","City":"Pelhřimov","District":"J","ZIP":"39301","Latitude":49.43289402,"Longitude":15.22757649},"LogoUrl":"https://downloadportal.blob.core.windows.net/k2ngtools/Images/PPFVUTVBSEJFSFEGVYPCBKUPVU======.png","HasSales":true,"HasServices":true,"TotalRating":null,"IsOpenNow":false,"OpenHoursNotSpecified":false,"MergedOffset":0,"MergedLength":0,"Driving":null},{"GlobalId":"260-2427A","Id":"59b0f97b-8a8d-4558-ac41-a2936659981d","Name":"AUTO RACEK a. s.","Address":{"Street":"Masarykova 757","City":"Humpolec","District":"J","ZIP":"39601","Latitude":49.53845252,"Longitude":15.35684288},"LogoUrl":"https://downloadportal.blob.core.windows.net/k2ngtools/Images/PPFVUTVBSEJFSFEGVYPCBKUPVU======.png","HasSales":true,"HasServices":true,"TotalRating":null,"IsOpenNow":false,"OpenHoursNotSpecified":false,"MergedOffset":0,"MergedLength":0,"Driving":null},{"GlobalId":"260-22411","Id":"049c2a21-7be9-464d-b3a8-c563cb6b11f0","Name":"Auto Sael s.r.o.","Address":{"Street":"Karlovarská 140","City":"357 35 Chodov","District":"K","ZIP":"35735","Latitude":50.2395167,"Longitude":12.7510715},"LogoUrl":"https://downloadportal.blob.core.windows.net/k2ngtools/Images/R2NH2KBOVGKZQAMWTBX73RM2KM======.png","HasSales":false,"HasServices":true,"TotalRating":null,"IsOpenNow":false,"OpenHoursNotSpecified":false,"MergedOffset":0,"MergedLength":0,"Driving":null},{"GlobalId":"260-2024D","Id":"197087b8-c2cf-4b15-8167-022b7fd8657b","Name":"AUTO ŠEVČÍK c.z., spol. s r.o.","Address":{"Street":"Vinařického 961/II","City":"Vodňany","District":"C","ZIP":"38901","Latitude":49.1409519,"Longitude":14.18274},"LogoUrl":"https://downloadportal.blob.core.windows.net/k2ngtools/Images/OT76WRX7T2PO45QIHX4O5Q475Y======.png","HasSales":true,"HasServices":true,"TotalRating":null,"IsOpenNow":false,"OpenHoursNotSpecified":false,"MergedOffset":0,"MergedLength":0,"Driving":null},{"GlobalId":"260-20249","Id":"65503233-1d79-43b0-851d-2dc8a7668c92","Name":"AUTO ŠEVČÍK c.z., spol. s r.o.","Address":{"Street":"České Vrbné 2379","City":"České Budějovice","District":"C","ZIP":"37011","Latitude":49.0017119,"Longitude":14.4482442},"LogoUrl":"https://downloadportal.blob.core.windows.net/k2ngtools/Images/OT76WRX7T2PO45QIHX4O5Q475Y======.png","HasSales":true,"HasServices":true,"TotalRating":null,"IsOpenNow":false,"OpenHoursNotSpecified":false,"MergedOffset":0,"MergedLength":0,"Driving":null},{"GlobalId":"260-2024A","Id":"775355d1-d2e4-49d6-bcd8-363c96065ebf","Name":"AUTO ŠEVČÍK c.z., spol. s r.o.","Address":{"Street":"Rožmberská 1219","City":"Prachatice","District":"C","ZIP":"38301","Latitude":49.01843791,"Longitude":13.99609387},"LogoUrl":"https://downloadportal.blob.core.windows.net/k2ngtools/Images/OT76WRX7T2PO45QIHX4O5Q475Y======.png","HasSales":true,"HasServices":true,"TotalRating":null,"IsOpenNow":false,"OpenHoursNotSpecified":false,"MergedOffset":0,"MergedLength":0,"Driving":null},{"GlobalId":"260-2024B","Id":"b3c90cb9-aafa-4d07-8ac9-9ad975759ce0","Name":"AUTO ŠEVČÍK c.z., spol. s r.o.","Address":{"Street":"Špidrova 119","City":"Vimperk","District":"C","ZIP":"385 01","Latitude":49.05497374,"Longitude":13.79334033},"LogoUrl":"https://downloadportal.blob.core.windows.net/k2ngtools/Images/OT76WRX7T2PO45QIHX4O5Q475Y======.png","HasSales":false,"HasServices":true,"TotalRating":null,"IsOpenNow":false,"OpenHoursNotSpecified":false,"MergedOffset":0,"MergedLength":0,"Driving":null},{"GlobalId":"260-2024E","Id":"530cd941-899b-4bc4-a96e-bc7199bd708d","Name":"AUTO ŠEVČÍK c.z., spol. s r.o.","Address":{"Street":"Dopravní 35","City":"Strakonice","District":"C","ZIP":"38601","Latitude":49.2580244,"Longitude":13.9147542},"LogoUrl":"https://downloadportal.blob.core.windows.net/k2ngtools/Images/OT76WRX7T2PO45QIHX4O5Q475Y======.png","HasSales":true,"HasServices":true,"TotalRating":null,"IsOpenNow":true,"OpenHoursNotSpecified":false,"MergedOffset":0,"MergedLength":0,"Driving":null},{"GlobalId":"260-25992","Id":"9332effd-3b25-44fc-b018-9a4a04fda6ee","Name":"AUTO ŠÍDLO s.r.o.","Address":{"Street":"Únětická 20","City":"Horoměřice","District":"S","ZIP":"25262","Latitude":50.1366036,"Longitude":14.33671832},"LogoUrl":"https://downloadportal.blob.core.windows.net/k2ngtools/Images/4LBZ5CQCCZCQJ4P6BYDQDXGF2M======.jpg","HasSales":true,"HasServices":true,"TotalRating":null,"IsOpenNow":false,"OpenHoursNotSpecified":false,"MergedOffset":0,"MergedLength":0,"Driving":null},{"GlobalId":"260-28011","Id":"6f2a05a9-cbbf-48bf-9e81-5b7ed63bbb72","Name":"Auto Štěpánek, a.s.","Address":{"Street":"Dolnoměcholupská 1654/10b","City":"Praha 15 - Hostivař","District":"A","ZIP":"10200","Latitude":50.0561181,"Longitude":14.5466653},"LogoUrl":"https://downloadportal.blob.core.windows.net/k2ngtools/Images/XWAXITT4MAHRTWV6ZWCUQP2JJU======.jpg","HasSales":true,"HasServices":true,"TotalRating":null,"IsOpenNow":false,"OpenHoursNotSpecified":false,"MergedOffset":0,"MergedLength":0,"Driving":null},{"GlobalId":"260-30280","Id":"3095344d-76eb-4dca-bdf1-7f71b31350a1","Name":"Auto Strž CZ a.s.","Address":{"Street":"Na Strži 35","City":"Praha 4","District":"A","ZIP":"14000","Latitude":50.0442767,"Longitude":14.4385636},"LogoUrl":"https://skodak2ngddm.blob.core.windows.net/images/dealer","HasSales":true,"HasServices":true,"TotalRating":null,"IsOpenNow":false,"OpenHoursNotSpecified":false,"MergedOffset":0,"MergedLength":0,"Driving":null},{"GlobalId":"260-25208","Id":"0b1bc76f-73fc-4d08-8b81-974808b8627d","Name":"AUTO STYL  a.s.","Address":{"Street":"Jeremiášova 3/1115","City":"Praha 5 - Stodůlky","District":"A","ZIP":"15000","Latitude":50.039619,"Longitude":14.3272957},"LogoUrl":"https://downloadportal.blob.core.windows.net/k2ngtools/Images/HXWGDK4BSRIPAFODQ6FH5D6ZSY======.JPG","HasSales":true,"HasServices":true,"TotalRating":null,"IsOpenNow":false,"OpenHoursNotSpecified":false,"MergedOffset":0,"MergedLength":0,"Driving":null},{"GlobalId":"260-2431A","Id":"cdaa9438-5df2-403c-942b-88ad48592a13","Name":"AUTO TOMAN, s.r.o.","Address":{"Street":"Lidická 166","City":"Třinec","District":"T","ZIP":"73961","Latitude":49.6763434,"Longitude":18.66723865},"LogoUrl":"https://downloadportal.blob.core.windows.net/k2ngtools/Images/ESDWNBTUDSG66W446QB3J3GVTQ======.jpg","HasSales":true,"HasServices":true,"TotalRating":null,"IsOpenNow":false,"OpenHoursNotSpecified":false,"MergedOffset":0,"MergedLength":0,"Driving":null},{"GlobalId":"260-24317","Id":"6a1152d9-8716-4495-bd7f-9b732830db30","Name":"AUTO TOMAN, s.r.o.","Address":{"Street":"Dlouhá třída 1026/65","City":"Havířov","District":"T","ZIP":"73601","Latitude":49.7775299,"Longitude":18.4446073},"LogoUrl":"https://downloadportal.blob.core.windows.net/k2ngtools/Images/VXVUIUC547TKL6QBK44KA6ABUQ======.jpg","HasSales":true,"HasServices":true,"TotalRating":null,"IsOpenNow":false,"OpenHoursNotSpecified":false,"MergedOffset":0,"MergedLength":0,"Driving":null},{"GlobalId":"260-21083","Id":"f562cb3e-23c3-4ed8-8f24-48f3d6a9de0c","Name":"AUTO UL a.s.","Address":{"Street":"Havířská 373/25","City":"Ústí nad Labem","District":"U","ZIP":"40010","Latitude":50.6899819,"Longitude":13.9760592},"LogoUrl":"https://downloadportal.blob.core.windows.net/k2ngtools/Images/TEB72MZEHONQDXRTDEY73MKEWM======.jpg","HasSales":true,"HasServices":true,"TotalRating":null,"IsOpenNow":false,"OpenHoursNotSpecified":false,"MergedOffset":0,"MergedLength":0,"Driving":null},{"GlobalId":"260-2025C","Id":"69f669da-bca8-49ea-8743-251ec812aed7","Name":"AUTO VOLF spol. s r.o.","Address":{"Street":"Jiráskova 646","City":"Holýšov","District":"P","ZIP":"34562","Latitude":49.59710289,"Longitude":13.10534835},"LogoUrl":"https://downloadportal.blob.core.windows.net/k2ngtools/Images/XYP44JQP2YIJEZP2GVPCUYCOKQ======.PNG","HasSales":true,"HasServices":true,"TotalRating":null,"IsOpenNow":false,"OpenHoursNotSpecified":false,"MergedOffset":0,"MergedLength":0,"Driving":null},{"GlobalId":"260-2025B","Id":"ce0c1020-5d2b-4490-a9f1-33cef0dc2454","Name":"AUTO VOLF spol. s r.o.","Address":{"Street":"Plzeňská 1444","City":"Stříbro","District":"P","ZIP":"34901","Latitude":49.7506028,"Longitude":12.99385965},"LogoUrl":"https://downloadportal.blob.core.windows.net/k2ngtools/Images/XYP44JQP2YIJEZP2GVPCUYCOKQ======.PNG","HasSales":true,"HasServices":true,"TotalRating":null,"IsOpenNow":false,"OpenHoursNotSpecified":false,"MergedOffset":0,"MergedLength":0,"Driving":null},{"GlobalId":"260-20257","Id":"cbbaea8d-3808-40a0-8e5e-9af672f285bf","Name":"AUTO VOLF spol. s r.o.","Address":{"Street":"Folmavská 2828/6","City":"Plzeň- Bory","District":"P","ZIP":"30100","Latitude":49.73083544,"Longitude":13.35249245},"LogoUrl":"https://downloadportal.blob.core.windows.net/k2ngtools/Images/XYP44JQP2YIJEZP2GVPCUYCOKQ======.PNG","HasSales":true,"HasServices":true,"TotalRating":null,"IsOpenNow":false,"OpenHoursNotSpecified":false,"MergedOffset":0,"MergedLength":0,"Driving":null},{"GlobalId":"260-2004B","Id":"9cd9f804-2589-4bba-8856-70035cc6512b","Name":"AUTOCENTRÁLA  s.r.o.","Address":{"Street":"Ostravská 1946/12","City":"Karviná, Fryštát","District":"T","ZIP":"73301","Latitude":49.85392253,"Longitude":18.53044868},"LogoUrl":"https://downloadportal.blob.core.windows.net/k2ngtools/Images/6AXYW3VQNZQWKQWYIWLCVTSLF4======.png","HasSales":true,"HasServices":true,"TotalRating":null,"IsOpenNow":false,"OpenHoursNotSpecified":false,"MergedOffset":0,"MergedLength":0,"Driving":null},{"GlobalId":"260-2004A","Id":"8551b3a4-ea76-4b9a-9dd5-a4685e7c97bf","Name":"AUTOCENTRÁLA  s.r.o.","Address":{"Street":"Třebovická 5534","City":"Ostrava - Třebovice","District":"T","ZIP":"72200","Latitude":49.82756737,"Longitude":18.19724321},"LogoUrl":"https://downloadportal.blob.core.windows.net/k2ngtools/Images/6AXYW3VQNZQWKQWYIWLCVTSLF4======.png","HasSales":true,"HasServices":true,"TotalRating":null,"IsOpenNow":false,"OpenHoursNotSpecified":false,"MergedOffset":0,"MergedLength":0,"Driving":null},{"GlobalId":"260-20044","Id":"beb50740-1419-4fbe-af2e-88bb7de482a2","Name":"AUTOCENTRÁLA  s.r.o.","Address":{"Street":"Markvartovická 1906/7","City":"Hlučín","District":"T","ZIP":"74801","Latitude":49.89872581,"Longitude":18.20498943},"LogoUrl":"https://downloadportal.blob.core.windows.net/k2ngtools/Images/6AXYW3VQNZQWKQWYIWLCVTSLF4======.png","HasSales":true,"HasServices":true,"TotalRating":null,"IsOpenNow":false,"OpenHoursNotSpecified":false,"MergedOffset":0,"MergedLength":0,"Driving":null},{"GlobalId":"260-20176","Id":"ec0b3bf6-45c6-4add-a10e-a292d1e9ab12","Name":"AUTOCENTRUM  TA  a.s.","Address":{"Street":"Tylova 70","City":"Plzeň","District":"P","ZIP":"30100","Latitude":49.74589223,"Longitude":13.35900217},"LogoUrl":"https://downloadportal.blob.core.windows.net/k2ngtools/Images/IFUOH2F7XXKWISJ3M522R5KHTY======.jpg","HasSales":true,"HasServices":true,"TotalRating":null,"IsOpenNow":false,"OpenHoursNotSpecified":false,"MergedOffset":0,"MergedLength":0,"Driving":null},{"GlobalId":"260-23299","Id":"7d371225-597e-4ebb-b4c9-ae76f9fdcc26","Name":"Autocentrum BARTH","Address":{"Street":"Hůrka 1798","City":"Pardubice - Dubina","District":"E","ZIP":"53012","Latitude":50.04727391,"Longitude":15.8091116},"LogoUrl":"https://downloadportal.blob.core.windows.net/k2ngtools/Images/YJGF6MAPP3I3EDWEW4TTEIF5VY======.jpg","HasSales":true,"HasServices":true,"TotalRating":null,"IsOpenNow":false,"OpenHoursNotSpecified":false,"MergedOffset":0,"MergedLength":0,"Driving":null},{"GlobalId":"260-2329C","Id":"8a9c7ba7-7b5e-4c4e-bc67-d3b390639582","Name":"Autocentrum BARTH - Hradec Králové","Address":{"Street":"Brněnská 2004","City":"Hradec Králové","District":"H","ZIP":"50006","Latitude":50.1892481,"Longitude":15.8495981},"LogoUrl":"https://downloadportal.blob.core.windows.net/k2ngtools/Images/YJGF6MAPP3I3EDWEW4TTEIF5VY======.jpg","HasSales":true,"HasServices":true,"TotalRating":null,"IsOpenNow":false,"OpenHoursNotSpecified":false,"MergedOffset":0,"MergedLength":0,"Driving":null},{"GlobalId":"260-29203","Id":"4de476fa-10c0-4b63-a055-cc7ae808d8eb","Name":"AUTOCENTRUM BOURA  spol. s r.o.","Address":{"Street":"Činěves 143","City":"Činěves  p. Dymokury","District":"S","ZIP":"28901","Latitude":50.2334369,"Longitude":15.2140747},"LogoUrl":null,"HasSales":false,"HasServices":true,"TotalRating":null,"IsOpenNow":false,"OpenHoursNotSpecified":false,"MergedOffset":0,"MergedLength":0,"Driving":null},{"GlobalId":"260-23361","Id":"8e8b07b6-fbdf-4ff1-ab4d-0081d21d64e7","Name":"AUTOCENTRUM JAN ŠMUCLER s.r.o.","Address":{"Street":"Dvořákova 304","City":"Horšovský Týn","District":"P","ZIP":"34601","Latitude":49.5275422,"Longitude":12.9478667},"LogoUrl":"https://downloadportal.blob.core.windows.net/k2ngtools/Images/4C5MKLQQW4WGRQPIGE57WNHV4Q======.png","HasSales":true,"HasServices":true,"TotalRating":null,"IsOpenNow":false,"OpenHoursNotSpecified":false,"MergedOffset":0,"MergedLength":0,"Driving":null},{"GlobalId":"260-2336D","Id":"bbc08817-a867-47da-8d5a-50adc7de7a64","Name":"AUTOCENTRUM JAN ŠMUCLER s.r.o.","Address":{"Street":"Domažlické předměstí 610","City":"Klatovy III","District":"P","ZIP":"33901","Latitude":49.3913619,"Longitude":13.2757342},"LogoUrl":"https://skodak2ngddm.blob.core.windows.net/images/4c5mklqqw4wgrqpige57wnhv4q%3D%3D%3D%3D%3D%3D","HasSales":true,"HasServices":true,"TotalRating":null,"IsOpenNow":false,"OpenHoursNotSpecified":false,"MergedOffset":0,"MergedLength":0,"Driving":null},{"GlobalId":"260-2336A","Id":"f717a6ae-5e7c-4055-8b8e-52fbddb6ce1e","Name":"AUTOCENTRUM JAN ŠMUCLER s.r.o.","Address":{"Street":"Borská 59","City":"Plzeň","District":"P","ZIP":"30100","Latitude":49.7357447,"Longitude":13.3551758},"LogoUrl":"https://downloadportal.blob.core.windows.net/k2ngtools/Images/4C5MKLQQW4WGRQPIGE57WNHV4Q======.png","HasSales":true,"HasServices":true,"TotalRating":null,"IsOpenNow":false,"OpenHoursNotSpecified":false,"MergedOffset":0,"MergedLength":0,"Driving":null},{"GlobalId":"260-22850","Id":"c74ba41e-deef-4e5b-a755-d38c80bace11","Name":"AUTOCENTRUM Jičín s.r.o.","Address":{"Street":"Hradecká 1101","City":"Jičín","District":"H","ZIP":"50601","Latitude":50.433396,"Longitude":15.381814},"LogoUrl":"https://downloadportal.blob.core.windows.net/k2ngtools/Images/UAWUHIDKPCYJMNEJMDZXMTDYNY======.png","HasSales":true,"HasServices":true,"TotalRating":null,"IsOpenNow":false,"OpenHoursNotSpecified":false,"MergedOffset":0,"MergedLength":0,"Driving":null},{"GlobalId":"260-2084A","Id":"df9d2348-fe10-4755-9196-4894f3267081","Name":"Autocentrum Lukáš s.r.o.","Address":{"Street":"Meziříčská 2607","City":"Rožnov pod Radhoštěm","District":"Z","ZIP":"75661","Latitude":49.459474,"Longitude":18.12568},"LogoUrl":"https://downloadportal.blob.core.windows.net/k2ngtools/Images/IN4Z7GMHSXT7N7WZGMK47Y4ALE======.png","HasSales":true,"HasServices":true,"TotalRating":null,"IsOpenNow":true,"OpenHoursNotSpecified":false,"MergedOffset":0,"MergedLength":0,"Driving":null},{"GlobalId":"260-2084C","Id":"dc87c007-b294-4f3c-aa9c-700e23da9de6","Name":"Autocentrum Lukáš s.r.o.","Address":{"Street":"Jeremenkovu 9","City":"Šenov u Nového Jičína","District":"T","ZIP":"74242","Latitude":49.6004872,"Longitude":18.0083719},"LogoUrl":"https://downloadportal.blob.core.windows.net/k2ngtools/Images/IN4Z7GMHSXT7N7WZGMK47Y4ALE======.png","HasSales":true,"HasServices":true,"TotalRating":null,"IsOpenNow":false,"OpenHoursNotSpecified":false,"MergedOffset":0,"MergedLength":0,"Driving":null},{"GlobalId":"260-20842","Id":"138efa55-1b9b-44f1-aaf6-d3a061465fcc","Name":"Autocentrum Lukáš s.r.o.","Address":{"Street":"Masarykova 752","City":"Valašské Meziříčí","District":"Z","ZIP":"75701","Latitude":49.49223552,"Longitude":17.96208858},"LogoUrl":"https://downloadportal.blob.core.windows.net/k2ngtools/Images/IN4Z7GMHSXT7N7WZGMK47Y4ALE======.png","HasSales":true,"HasServices":true,"TotalRating":null,"IsOpenNow":false,"OpenHoursNotSpecified":false,"MergedOffset":0,"MergedLength":0,"Driving":null},{"GlobalId":"260-22268","Id":"faea2f1d-7c6e-46e8-95d1-dcca5c9dacd8","Name":"AUTOCENTRUM OLOMOUC s.r.o.","Address":{"Street":"Horní Lán čp. 445/1","City":"Olomouc","District":"M","ZIP":"77900","Latitude":49.57428,"Longitude":17.2334008},"LogoUrl":"https://downloadportal.blob.core.windows.net/k2ngtools/Images/HZTIZFHNQQIG3PB67T7ZIN4ACQ======.jpg","HasSales":false,"HasServices":true,"TotalRating":null,"IsOpenNow":false,"OpenHoursNotSpecified":false,"MergedOffset":0,"MergedLength":0,"Driving":null},{"GlobalId":"260-22713","Id":"7a7a3965-adb7-4e76-b6fe-e02b12321967","Name":"Autocentrum Přerov CZ  s.r.o.","Address":{"Street":"Olomoucká 440/44","City":"Přerov - Předmostí","District":"M","ZIP":"75124","Latitude":49.47124758,"Longitude":17.42704153},"LogoUrl":"https://downloadportal.blob.core.windows.net/k2ngtools/Images/YBHJ2J2YNKQYEYIXXGJUXYRCQ4======.png","HasSales":true,"HasServices":true,"TotalRating":null,"IsOpenNow":false,"OpenHoursNotSpecified":false,"MergedOffset":0,"MergedLength":0,"Driving":null},{"GlobalId":"260-24198","Id":"dcb4070a-0276-4701-ac23-31cf59865cbd","Name":"Autocentrum ROS, a. s","Address":{"Street":"Poříčí 1c","City":"Brno","District":"B","ZIP":"60300","Latitude":49.1856989,"Longitude":16.58786684},"LogoUrl":"https://downloadportal.blob.core.windows.net/k2ngtools/Images/3D5HPJ5T25NPV4AB236C26D3PE======.jpg","HasSales":true,"HasServices":true,"TotalRating":null,"IsOpenNow":false,"OpenHoursNotSpecified":false,"MergedOffset":0,"MergedLength":0,"Driving":null},{"GlobalId":"260-22781","Id":"9583f23b-85d1-4f0b-9951-d7cbbc1dbf00","Name":"AUTOCENTRUM VOTICE, s.r.o.","Address":{"Street":"Na Bělické louce 756","City":"Votice","District":"S","ZIP":"25901","Latitude":49.644648,"Longitude":14.638333},"LogoUrl":null,"HasSales":false,"HasServices":true,"TotalRating":null,"IsOpenNow":false,"OpenHoursNotSpecified":false,"MergedOffset":0,"MergedLength":0,"Driving":null},{"GlobalId":"260-22896","Id":"dc435f56-168b-43a0-82b9-d958621b5ba0","Name":"AUTODRUŽSTVO  PODBABSKÁ","Address":{"Street":"Pod Paťankou 217/1","City":"Praha 6","District":"A","ZIP":"16000","Latitude":50.1142889,"Longitude":14.3920939},"LogoUrl":"https://downloadportal.blob.core.windows.net/k2ngtools/Images/K72YY7CSNQGNCEHA6PQEG6QH2I======.jpg","HasSales":true,"HasServices":true,"TotalRating":null,"IsOpenNow":false,"OpenHoursNotSpecified":false,"MergedOffset":0,"MergedLength":0,"Driving":null},{"GlobalId":"260-28924","Id":"154a803e-4f2e-4002-9014-0b6d2f38964a","Name":"Autodružstvo Frýdek - Místek","Address":{"Street":"Beskydská 704","City":"Frýdek - Místek","District":"T","ZIP":"73802","Latitude":49.66780836,"Longitude":18.34567666},"LogoUrl":"https://downloadportal.blob.core.windows.net/k2ngtools/Images/N2HE3ER3CNSC7OWSXWBRSM4UXI======.jpg","HasSales":true,"HasServices":true,"TotalRating":null,"IsOpenNow":false,"OpenHoursNotSpecified":false,"MergedOffset":0,"MergedLength":0,"Driving":null},{"GlobalId":"260-2892B","Id":"6ae752d7-f314-4f5c-a9ba-430a59fb639d","Name":"Autodružstvo Frýdek - Místek","Address":{"Street":"Brandlova 5","City":"Ostrava - Moravská Ostrava","District":"T","ZIP":"70200","Latitude":49.83319041,"Longitude":18.28489244},"LogoUrl":"https://downloadportal.blob.core.windows.net/k2ngtools/Images/N2HE3ER3CNSC7OWSXWBRSM4UXI======.jpg","HasSales":true,"HasServices":true,"TotalRating":null,"IsOpenNow":false,"OpenHoursNotSpecified":false,"MergedOffset":0,"MergedLength":0,"Driving":null},{"GlobalId":"260-2892A","Id":"461265e5-ce26-4f09-8832-7837e528fc18","Name":"Autodružstvo Frýdek - Místek","Address":{"Street":"Frýdecká ul.","City":"Český Těšín","District":"T","ZIP":"73701","Latitude":49.7454208,"Longitude":18.62094641},"LogoUrl":"https://downloadportal.blob.core.windows.net/k2ngtools/Images/N2HE3ER3CNSC7OWSXWBRSM4UXI======.jpg","HasSales":true,"HasServices":true,"TotalRating":null,"IsOpenNow":false,"OpenHoursNotSpecified":false,"MergedOffset":0,"MergedLength":0,"Driving":null},{"GlobalId":"260-2892C","Id":"a9a39d24-a889-4158-bdf4-cdb05993c275","Name":"Autodružstvo Frýdek - Místek","Address":{"Street":"Hlučínská 60","City":"Ostrava - Přívoz","District":"T","ZIP":"70200","Latitude":49.85877304,"Longitude":18.26817691},"LogoUrl":"https://downloadportal.blob.core.windows.net/k2ngtools/Images/N2HE3ER3CNSC7OWSXWBRSM4UXI======.jpg","HasSales":true,"HasServices":true,"TotalRating":null,"IsOpenNow":false,"OpenHoursNotSpecified":false,"MergedOffset":0,"MergedLength":0,"Driving":null},{"GlobalId":"260-29513","Id":"e4999c3e-8130-4d8c-be45-10dcf69277be","Name":"AUTODRUŽSTVO ZNOJMO","Address":{"Street":"Vídeňská třída  2573/43","City":"Znojmo","District":"B","ZIP":"66902","Latitude":48.84806076,"Longitude":16.05729103},"LogoUrl":"https://downloadportal.blob.core.windows.net/k2ngtools/Images/V2RJDPTTGVFVRCZT4GPDOXK7NA======.png","HasSales":true,"HasServices":true,"TotalRating":null,"IsOpenNow":false,"OpenHoursNotSpecified":false,"MergedOffset":0,"MergedLength":0,"Driving":null},{"GlobalId":"260-28657","Id":"c525602c-0329-4db6-8ffc-b50a2f9292be","Name":"AutoDům Chomutov  spol. s r.o.","Address":{"Street":"Spořická 4522","City":"Chomutov","District":"U","ZIP":"43000","Latitude":50.45457876,"Longitude":13.40221524},"LogoUrl":null,"HasSales":true,"HasServices":true,"TotalRating":null,"IsOpenNow":false,"OpenHoursNotSpecified":false,"MergedOffset":0,"MergedLength":0,"Driving":null},{"GlobalId":"260-27049","Id":"525c784f-9255-4ea2-b2cd-91dd22e53e48","Name":"Autodům Vrána s.r.o.","Address":{"Street":"Železničářů 1492/3","City":"Havířov - Město","District":"T","ZIP":"73601","Latitude":49.78997658,"Longitude":18.41037691},"LogoUrl":"https://downloadportal.blob.core.windows.net/k2ngtools/Images/TUWYSRE5SRLPVWRDXOBKXVQKHE======.jpg","HasSales":true,"HasServices":true,"TotalRating":null,"IsOpenNow":false,"OpenHoursNotSpecified":false,"MergedOffset":0,"MergedLength":0,"Driving":null},{"GlobalId":"260-24392","Id":"58cc7130-b48e-4539-a8e9-16a05a54683b","Name":"AUTOKLEVER, spol. s r.o.","Address":{"Street":"Hřbitovní 5","City":"Nový Jičín","District":"T","ZIP":"74101","Latitude":49.5995178,"Longitude":18.0208778},"LogoUrl":"https://downloadportal.blob.core.windows.net/k2ngtools/Images/MRF57PSOGQ3I35JMMDYN36UTCI======.png","HasSales":true,"HasServices":true,"TotalRating":null,"IsOpenNow":false,"OpenHoursNotSpecified":false,"MergedOffset":0,"MergedLength":0,"Driving":null},{"GlobalId":"260-24180","Id":"3d7821d5-7b1d-40aa-9729-1c9d1872608f","Name":"Autokomplex Menčík a.s.","Address":{"Street":"Korybutova 686/4","City":"Praha 8","District":"A","ZIP":"18600","Latitude":50.09195269,"Longitude":14.4590807},"LogoUrl":"https://downloadportal.blob.core.windows.net/k2ngtools/Images/WZCZFSGV45PGKDIW2HAOSCHNSU======.jpg","HasSales":true,"HasServices":true,"TotalRating":null,"IsOpenNow":false,"OpenHoursNotSpecified":false,"MergedOffset":0,"MergedLength":0,"Driving":null},{"GlobalId":"260-2418A","Id":"4fbd769d-1a03-4761-a832-a552a7cad7ee","Name":"Autokomplex Menčík a.s.","Address":{"Street":"Mladská 713","City":"Benátky nad Jizerou","District":"S","ZIP":"29471","Latitude":50.2816408,"Longitude":14.8360703},"LogoUrl":"https://downloadportal.blob.core.windows.net/k2ngtools/Images/WZCZFSGV45PGKDIW2HAOSCHNSU======.jpg","HasSales":true,"HasServices":true,"TotalRating":null,"IsOpenNow":false,"OpenHoursNotSpecified":false,"MergedOffset":0,"MergedLength":0,"Driving":null},{"GlobalId":"260-25429","Id":"5bc1ecbe-73cd-4a67-bc5c-10c9349efcb6","Name":"Automechanika, a.s.","Address":{"Street":"Letecká 3753/2","City":"Prostějov","District":"M","ZIP":"79601","Latitude":49.4638717,"Longitude":17.1239522},"LogoUrl":"https://downloadportal.blob.core.windows.net/k2ngtools/Images/SGJBKR3HP63FXVQQEBUXMU5XDY======.PNG","HasSales":true,"HasServices":true,"TotalRating":null,"IsOpenNow":false,"OpenHoursNotSpecified":false,"MergedOffset":0,"MergedLength":0,"Driving":null},{"GlobalId":"260-30070","Id":"8834c8a5-495b-4f93-be64-93c49def7084","Name":"AUTONORTH VDF s.r.o.","Address":{"Street":"Karlínská 1839","City":"Varnsdorf","District":"U","ZIP":"40747","Latitude":50.9121111,"Longitude":14.6125278},"LogoUrl":"https://downloadportal.blob.core.windows.net/k2ngtools/Images/QEFPFO32QSJHWWJ4SKADNRC77Q======.jpg","HasSales":false,"HasServices":true,"TotalRating":null,"IsOpenNow":false,"OpenHoursNotSpecified":false,"MergedOffset":0,"MergedLength":0,"Driving":null},{"GlobalId":"260-28266","Id":"f992bf30-dc52-4475-bf69-58c7b05d38fb","Name":"AUTONOVA BRNO s.r.o.","Address":{"Street":"Masná 418/20, Trnitá","City":"Brno","District":"B","ZIP":"60200","Latitude":49.18761152,"Longitude":16.62304401},"LogoUrl":"https://downloadportal.blob.core.windows.net/k2ngtools/Images/ZFEFIDEERPPA2O6RH5D4GW3GBM======.png","HasSales":true,"HasServices":true,"TotalRating":null,"IsOpenNow":false,"OpenHoursNotSpecified":false,"MergedOffset":0,"MergedLength":0,"Driving":null},{"GlobalId":"260-24066","Id":"fd089d63-4f79-4f1f-adf0-98acfe33afdd","Name":"AUTOPLUS II, s.r.o.","Address":{"Street":"Rudolická 1730","City":"Most","District":"U","ZIP":"43401","Latitude":50.5100669,"Longitude":13.6527242},"LogoUrl":"https://downloadportal.blob.core.windows.net/k2ngtools/Images/SJLC23HFVUQ3N6CO33A7ONCZGE======.png","HasSales":true,"HasServices":true,"TotalRating":null,"IsOpenNow":false,"OpenHoursNotSpecified":false,"MergedOffset":0,"MergedLength":0,"Driving":null},{"GlobalId":"260-21016","Id":"724a6f1e-8fdc-4968-aeb4-31ce5865e54b","Name":"AUTOPROFIT s.r.o.","Address":{"Street":"Mýtní 2","City":"Svitavy","District":"E","ZIP":"56802","Latitude":49.7488619,"Longitude":16.4756708},"LogoUrl":null,"HasSales":false,"HasServices":true,"TotalRating":null,"IsOpenNow":false,"OpenHoursNotSpecified":false,"MergedOffset":0,"MergedLength":0,"Driving":null},{"GlobalId":"260-27693","Id":"57798b71-4996-4778-aea8-bec67e6c9fc5","Name":"AUTOS, spol. s r.o.","Address":{"Street":"Palackého 154","City":"Kunštát","District":"B","ZIP":"67972","Latitude":49.506518,"Longitude":16.52511925},"LogoUrl":"https://downloadportal.blob.core.windows.net/k2ngtools/Images/T6BXTZGUJFU27EH2RVJBATW3RU======.jpg","HasSales":true,"HasServices":true,"TotalRating":null,"IsOpenNow":false,"OpenHoursNotSpecified":false,"MergedOffset":0,"MergedLength":0,"Driving":null},{"GlobalId":"260-28886","Id":"f9064228-a1c9-4338-b29b-dcc88cb54e9b","Name":"Autosalon ASTRA a.s.","Address":{"Street":"Jarní 28","City":"Jablonec nad Nisou","District":"L","ZIP":"46601","Latitude":50.72186761,"Longitude":15.18373847},"LogoUrl":null,"HasSales":true,"HasServices":true,"TotalRating":null,"IsOpenNow":false,"OpenHoursNotSpecified":false,"MergedOffset":0,"MergedLength":0,"Driving":null},{"GlobalId":"260-20168","Id":"d5864fa9-2d9f-4cb8-a8f2-0cd8bfae11ea","Name":"AUTOSALON F3K, s.r.o.","Address":{"Street":"Spojovací 1338","City":"Třebíč","District":"J","ZIP":"67401","Latitude":49.2041842,"Longitude":15.8902572},"LogoUrl":"https://downloadportal.blob.core.windows.net/k2ngtools/Images/SZWRWI2BAB3NTIUIVUECUCCTLE======.PNG","HasSales":true,"HasServices":true,"TotalRating":null,"IsOpenNow":false,"OpenHoursNotSpecified":false,"MergedOffset":0,"MergedLength":0,"Driving":null},{"GlobalId":"260-20826","Id":"4371b0fc-6223-435b-8908-fbe6f7956180","Name":"AUTOSALON HORA CZ  a .s.","Address":{"Street":"Šťouračova 1b","City":"Brno","District":"B","ZIP":"63500","Latitude":49.21723269,"Longitude":16.51996404},"LogoUrl":"https://downloadportal.blob.core.windows.net/k2ngtools/Images/T7S4F275IHSJTHJKL3FTOYX5HQ======.png","HasSales":true,"HasServices":true,"TotalRating":null,"IsOpenNow":false,"OpenHoursNotSpecified":false,"MergedOffset":0,"MergedLength":0,"Driving":null},{"GlobalId":"260-24503","Id":"73ae9fa8-adb1-4d89-a22f-61c3bdc2a969","Name":"Autosalon Klokočka Centrum a.s.","Address":{"Street":"Karlovarská 660/117","City":"Praha 6","District":"A","ZIP":"16300","Latitude":50.0766903,"Longitude":14.2981267},"LogoUrl":"https://downloadportal.blob.core.windows.net/k2ngtools/Images/OVHM72IUVSZ4MZ23WAUPECBOHU======.png","HasSales":true,"HasServices":true,"TotalRating":null,"IsOpenNow":false,"OpenHoursNotSpecified":false,"MergedOffset":0,"MergedLength":0,"Driving":null},{"GlobalId":"260-2450B","Id":"4699ce19-0808-44ea-af55-f9a7762fd20a","Name":"Autosalon Klokočka Centrum a.s.","Address":{"Street":"Borského 1/989","City":"Praha 5 - Barrandov","District":"A","ZIP":"15200","Latitude":50.0333567,"Longitude":14.3822622},"LogoUrl":null,"HasSales":false,"HasServices":true,"TotalRating":null,"IsOpenNow":false,"OpenHoursNotSpecified":false,"MergedOffset":0,"MergedLength":0,"Driving":null},{"GlobalId":"260-29327","Id":"f0c92892-cc79-45ca-94b1-98c5fa01432e","Name":"AUTOSALON KUDRNA s.r.o.","Address":{"Street":"Příčná 1215","City":"Orlová- Poruba","District":"T","ZIP":"73514","Latitude":49.85049835,"Longitude":18.41717899},"LogoUrl":"https://downloadportal.blob.core.windows.net/k2ngtools/Images/I6CD5SSLYWVYX7MH25J2U7SVO4======.png","HasSales":true,"HasServices":true,"TotalRating":null,"IsOpenNow":false,"OpenHoursNotSpecified":false,"MergedOffset":0,"MergedLength":0,"Driving":null},{"GlobalId":"260-29971","Id":"eabb541b-3eb1-4dc0-ad4d-ab64024fac09","Name":"AUTOSERVIS JINDRA s.r.o.","Address":{"Street":"Mrázkova 801/III","City":"Soběslav","District":"C","ZIP":"39201","Latitude":49.26309977,"Longitude":14.71306443},"LogoUrl":"https://downloadportal.blob.core.windows.net/k2ngtools/Images/NIF7UXF5N6OJK7KSBLJQ6UWWGI======.jpg","HasSales":true,"HasServices":true,"TotalRating":null,"IsOpenNow":false,"OpenHoursNotSpecified":false,"MergedOffset":0,"MergedLength":0,"Driving":null},{"GlobalId":"260-29181","Id":"77622b46-67af-49fc-91e3-f8523b397779","Name":"AUTOSERVIS NEDVĚD, s.r.o.","Address":{"Street":"Štefanikova 104","City":"Plzeň - Černice","District":"P","ZIP":"32600","Latitude":49.6977117,"Longitude":13.4165228},"LogoUrl":"https://downloadportal.blob.core.windows.net/k2ngtools/Images/GMOTOT5JSF3OWSVA6YPWJ5KHLQ======.jpg","HasSales":true,"HasServices":true,"TotalRating":null,"IsOpenNow":false,"OpenHoursNotSpecified":false,"MergedOffset":0,"MergedLength":0,"Driving":null},{"GlobalId":"260-26379","Id":"6e78c9ab-82f8-41a6-846f-2e85b21b8ac2","Name":"AUTOSERVIS NOVOTNÝ spol. s r.o.","Address":{"Street":"Táborská 568","City":"Týn nad Vltavou","District":"C","ZIP":"37501","Latitude":49.22902224,"Longitude":14.42167997},"LogoUrl":"https://downloadportal.blob.core.windows.net/k2ngtools/Images/7X34WORSWYIEBCWMY3WJEZP25E======.jpg","HasSales":true,"HasServices":true,"TotalRating":null,"IsOpenNow":false,"OpenHoursNotSpecified":false,"MergedOffset":0,"MergedLength":0,"Driving":null},{"GlobalId":"260-27707","Id":"a377a9ea-e82c-417e-b4e5-6f6e401a6289","Name":"AUTOSERVIS spol. s r.o.","Address":{"Street":"Slunečná 76/II","City":"Vysoké Mýto","District":"E","ZIP":"56601","Latitude":49.9559931,"Longitude":16.1545503},"LogoUrl":null,"HasSales":false,"HasServices":true,"TotalRating":null,"IsOpenNow":false,"OpenHoursNotSpecified":false,"MergedOffset":0,"MergedLength":0,"Driving":null},{"GlobalId":"260-29149","Id":"9c04671b-1075-4834-b887-7f19601a2deb","Name":"Autoservis Šrachta s.r.o.","Address":{"Street":"Písecká 513","City":"Strakonice","District":"C","ZIP":"38601","Latitude":49.2683121,"Longitude":13.9141685},"LogoUrl":"https://downloadportal.blob.core.windows.net/k2ngtools/Images/6FMSGIWR2DPBC6HPTQVSSC4HXM======.jpg","HasSales":true,"HasServices":true,"TotalRating":null,"IsOpenNow":false,"OpenHoursNotSpecified":false,"MergedOffset":0,"MergedLength":0,"Driving":null},{"GlobalId":"260-27260","Id":"924c5267-4aec-4afe-b4ed-cf119fee766c","Name":"AUTOSHOP PAULUS, spol. s r.o.","Address":{"Street":"Hulínská 3221","City":"Kroměříž","District":"Z","ZIP":"76701","Latitude":49.3064812,"Longitude":17.40676135},"LogoUrl":"https://downloadportal.blob.core.windows.net/k2ngtools/Images/VGVH75LETACLWLETNUOV3QV5FU======.png","HasSales":true,"HasServices":true,"TotalRating":null,"IsOpenNow":false,"OpenHoursNotSpecified":false,"MergedOffset":0,"MergedLength":0,"Driving":null},{"GlobalId":"260-28029","Id":"d60e6e76-cc27-47dc-8771-290afe47ab44","Name":"AUTOspektrum 2000 - Mariánské Lázně","Address":{"Street":"Plzeňská 608/17","City":"Mariánské Lázně","District":"K","ZIP":"35301","Latitude":49.94590921,"Longitude":12.70700812},"LogoUrl":"https://downloadportal.blob.core.windows.net/k2ngtools/Images/N4H4SEVU35LRYR36HYA7YYK3KA======.jpg","HasSales":true,"HasServices":true,"TotalRating":null,"IsOpenNow":false,"OpenHoursNotSpecified":false,"MergedOffset":0,"MergedLength":0,"Driving":null},{"GlobalId":"260-24601","Id":"fd082ee5-79c7-4f06-b817-153418eca718","Name":"AUTO-SPEKTRUM -ACC, spol. s r.o.","Address":{"Street":"Hviezdoslavova 3","City":"Brno- Slatina","District":"B","ZIP":"62700","Latitude":49.1833637,"Longitude":16.67451292},"LogoUrl":"https://downloadportal.blob.core.windows.net/k2ngtools/Images/EJORFBM3WTBN7NMKBOLKESBQ4Y======.png","HasSales":false,"HasServices":true,"TotalRating":null,"IsOpenNow":false,"OpenHoursNotSpecified":false,"MergedOffset":0,"MergedLength":0,"Driving":null},{"GlobalId":"260-2802A","Id":"76b542f0-63c0-4e03-808b-ddba8ded07b9","Name":"AUTOspektrum2000 - Cheb","Address":{"Street":"Truhlářská 2061/11","City":"Cheb","District":"K","ZIP":"35002","Latitude":50.0849658,"Longitude":12.3815542},"LogoUrl":"https://downloadportal.blob.core.windows.net/k2ngtools/Images/N4H4SEVU35LRYR36HYA7YYK3KA======.jpg","HasSales":true,"HasServices":true,"TotalRating":null,"IsOpenNow":false,"OpenHoursNotSpecified":false,"MergedOffset":0,"MergedLength":0,"Driving":null},{"GlobalId":"260-27081","Id":"7c1e0353-4441-4b88-9996-76072c04b440","Name":"AUTOSPOL PLUS spol. s r.o.","Address":{"Street":"Strakonická 366","City":"Horažďovice","District":"P","ZIP":"34101","Latitude":49.31916736,"Longitude":13.71023476},"LogoUrl":null,"HasSales":true,"HasServices":true,"TotalRating":null,"IsOpenNow":false,"OpenHoursNotSpecified":false,"MergedOffset":0,"MergedLength":0,"Driving":null},{"GlobalId":"260-28606","Id":"82cf5eb1-bf9c-42a3-9ce5-4430e2610991","Name":"AUTOSPOL, s.r.o.","Address":{"Street":"nám.9.května 1","City":"Boskovice","District":"B","ZIP":"68001","Latitude":49.4886175,"Longitude":16.6635558},"LogoUrl":"https://downloadportal.blob.core.windows.net/k2ngtools/Images/4PGTNS7UK3XB2ZH7GA4B2MKWAE======.jpg","HasSales":true,"HasServices":true,"TotalRating":null,"IsOpenNow":false,"OpenHoursNotSpecified":false,"MergedOffset":0,"MergedLength":0,"Driving":null},{"GlobalId":"260-30180","Id":"52ce28b8-0cef-4b43-bb41-3bed7aa6e11d","Name":"AUTOSPORT KUČERA s.r.o.","Address":{"Street":"Kunratická 1145","City":"Liberec","District":"L","ZIP":"46015","Latitude":50.7603979,"Longitude":15.0883698},"LogoUrl":"https://downloadportal.blob.core.windows.net/k2ngtools/Images/422NDGNZMJJNR62TXOKGG372YI======.JPG","HasSales":true,"HasServices":true,"TotalRating":null,"IsOpenNow":false,"OpenHoursNotSpecified":false,"MergedOffset":0,"MergedLength":0,"Driving":null},{"GlobalId":"260-28673","Id":"ba2a3b14-fb4f-495c-b140-a445ece4b4ac","Name":"Autostop, spol. s r.o.","Address":{"Street":"Luženská 1992","City":"Rakovník","District":"S","ZIP":"26901","Latitude":50.1021284,"Longitude":13.7459189},"LogoUrl":"https://downloadportal.blob.core.windows.net/k2ngtools/Images/GQNSJ7UDEC3DKAWJADOFFJSRJE======.JPG","HasSales":true,"HasServices":true,"TotalRating":null,"IsOpenNow":false,"OpenHoursNotSpecified":false,"MergedOffset":0,"MergedLength":0,"Driving":null},{"GlobalId":"260-28231","Id":"a2af21f2-34a3-4042-ae85-7c7acdc73d62","Name":"AUTOSTYL a.s.","Address":{"Street":"Horská 579","City":"Trutnov","District":"H","ZIP":"54101","Latitude":50.58030722,"Longitude":15.89198112},"LogoUrl":"https://downloadportal.blob.core.windows.net/k2ngtools/Images/BUSMTSJ6F5332ZEOZ43W3F5POU======.jpg","HasSales":true,"HasServices":true,"TotalRating":null,"IsOpenNow":false,"OpenHoursNotSpecified":false,"MergedOffset":0,"MergedLength":0,"Driving":null},{"GlobalId":"260-28380","Id":"3ff833cf-a6dc-4054-9851-a13bd997d9a1","Name":"AUTOTREND, spol. s r.o.","Address":{"Street":"ul. České mládeže 1101","City":"Liberec 25","District":"L","ZIP":"46312","Latitude":50.7435278,"Longitude":15.0479722},"LogoUrl":null,"HasSales":true,"HasServices":true,"TotalRating":null,"IsOpenNow":false,"OpenHoursNotSpecified":false,"MergedOffset":0,"MergedLength":0,"Driving":null},{"GlobalId":"260-20834","Id":"ddccbba9-2956-47a0-8332-91e31b8b0eae","Name":"AUTOTRIO Praha, s.r.o.","Address":{"Street":"Vzpoury 3","City":"Praha 4","District":"A","ZIP":"14300","Latitude":49.9955183,"Longitude":14.4065656},"LogoUrl":"https://downloadportal.blob.core.windows.net/k2ngtools/Images/IIRQDHPE6K5TYKZEQ6XN2NNYMA======.jpeg","HasSales":true,"HasServices":true,"TotalRating":null,"IsOpenNow":false,"OpenHoursNotSpecified":false,"MergedOffset":0,"MergedLength":0,"Driving":null},{"GlobalId":"260-28975","Id":"3b984633-5e9e-4950-bafa-a23d88651331","Name":"AUTOZÍTKA s.r.o.","Address":{"Street":"Martinovice 31","City":"Sukorady","District":"S","ZIP":"29406","Latitude":50.431298,"Longitude":15.040369},"LogoUrl":"https://downloadportal.blob.core.windows.net/k2ngtools/Images/D2WZKJGUJW6KLWWKNVULDFAR3E======.jpg","HasSales":true,"HasServices":true,"TotalRating":null,"IsOpenNow":false,"OpenHoursNotSpecified":false,"MergedOffset":0,"MergedLength":0,"Driving":null},{"GlobalId":"260-25518","Id":"737c5262-ce9a-4de7-89e2-edf95c217f9c","Name":"AZ SERVIS, a.s.","Address":{"Street":"Pražákova 1008/69","City":"Brno","District":"B","ZIP":"63900","Latitude":49.1758128,"Longitude":16.6057575},"LogoUrl":"https://downloadportal.blob.core.windows.net/k2ngtools/Images/KLRBAPXAWNOHNJ2THE52TMGZHY======.jpg","HasSales":true,"HasServices":true,"TotalRating":null,"IsOpenNow":false,"OpenHoursNotSpecified":false,"MergedOffset":0,"MergedLength":0,"Driving":null},{"GlobalId":"260-28291","Id":"1eb566f7-29aa-4a52-b6fe-19a8642fd148","Name":"BENO ŘÍČANY, s.r.o.","Address":{"Street":"Říčanská 1818","City":"Říčany u Prahy","District":"S","ZIP":"25101","Latitude":49.99803986,"Longitude":14.65617478},"LogoUrl":null,"HasSales":true,"HasServices":true,"TotalRating":null,"IsOpenNow":false,"OpenHoursNotSpecified":false,"MergedOffset":0,"MergedLength":0,"Driving":null},{"GlobalId":"260-2235C","Id":"70eb547e-8506-461b-a0b9-4f27162bbd13","Name":"CAR POINT s.r.o.","Address":{"Street":"Masarykova 570","City":"Domažlice","District":"P","ZIP":"34401","Latitude":49.4333525,"Longitude":12.9519044},"LogoUrl":null,"HasSales":false,"HasServices":true,"TotalRating":null,"IsOpenNow":false,"OpenHoursNotSpecified":false,"MergedOffset":0,"MergedLength":0,"Driving":null},{"GlobalId":"260-2264A","Id":"9fddd3e4-9fe3-4790-9a30-4b7c182aa738","Name":"CB Auto a.s.","Address":{"Street":"Budějovická 166","City":"Český Krumlov","District":"C","ZIP":"38101","Latitude":48.8264294,"Longitude":14.3364822},"LogoUrl":"https://downloadportal.blob.core.windows.net/k2ngtools/Images/OKC7RI2IZHC3FGXXNHYFLJ23PE======.png","HasSales":true,"HasServices":true,"TotalRating":null,"IsOpenNow":false,"OpenHoursNotSpecified":false,"MergedOffset":0,"MergedLength":0,"Driving":null},{"GlobalId":"260-2264B","Id":"25a4a186-cffc-462b-b2af-7ebfef0de97d","Name":"CB Auto a.s.","Address":{"Street":"Soběslavská 2985","City":"Tábor","District":"C","ZIP":"39005","Latitude":49.3955858,"Longitude":14.6868753},"LogoUrl":"https://downloadportal.blob.core.windows.net/k2ngtools/Images/OKC7RI2IZHC3FGXXNHYFLJ23PE======.png","HasSales":true,"HasServices":true,"TotalRating":null,"IsOpenNow":false,"OpenHoursNotSpecified":false,"MergedOffset":0,"MergedLength":0,"Driving":null},{"GlobalId":"260-22641","Id":"daf7894a-d7ae-43d5-8475-8abc193e9eeb","Name":"CB Auto a.s.","Address":{"Street":"Dr. Milady Horákové 1477","City":"České Budějovice","District":"C","ZIP":"37005","Latitude":48.97899174,"Longitude":14.44107771},"LogoUrl":"https://downloadportal.blob.core.windows.net/k2ngtools/Images/OKC7RI2IZHC3FGXXNHYFLJ23PE======.png","HasSales":true,"HasServices":true,"TotalRating":null,"IsOpenNow":false,"OpenHoursNotSpecified":false,"MergedOffset":0,"MergedLength":0,"Driving":null},{"GlobalId":"260-21415","Id":"3e4734b7-60e6-447e-a340-1281b4e35a59","Name":"Daníček, s.r.o.","Address":{"Street":"Vizovická 423","City":"Zlín","District":"Z","ZIP":"76001","Latitude":49.2236789,"Longitude":17.7022192},"LogoUrl":null,"HasSales":false,"HasServices":true,"TotalRating":null,"IsOpenNow":false,"OpenHoursNotSpecified":false,"MergedOffset":0,"MergedLength":0,"Driving":null},{"GlobalId":"260-20150","Id":"fcbbd428-5261-43b0-a64c-452eb4bd6e21","Name":"DOBE CAR  s.r.o.","Address":{"Street":"Tovární 1250","City":"Holešov","District":"Z","ZIP":"76901","Latitude":49.32403462,"Longitude":17.57100105},"LogoUrl":"https://downloadportal.blob.core.windows.net/k2ngtools/Images/Z7YDLS37AIJKAWQHRRMAZI42WE======.png","HasSales":true,"HasServices":true,"TotalRating":null,"IsOpenNow":false,"OpenHoursNotSpecified":false,"MergedOffset":0,"MergedLength":0,"Driving":null},{"GlobalId":"260-3019B","Id":"a5db7e2e-8a12-4dbf-bbff-1de825483e6b","Name":"DRUPOL autodružstvo","Address":{"Street":"Na Parkáně 367/14","City":"Beroun","District":"S","ZIP":"26601","Latitude":49.9624367,"Longitude":14.0763125},"LogoUrl":"https://downloadportal.blob.core.windows.net/k2ngtools/Images/CLD2Z2B4E34XX3QVVU2G6OJJBI======.jpg","HasSales":true,"HasServices":true,"TotalRating":null,"IsOpenNow":false,"OpenHoursNotSpecified":false,"MergedOffset":0,"MergedLength":0,"Driving":null},{"GlobalId":"260-3019A","Id":"9581a40f-d5f2-4e65-9733-948258576cd5","Name":"DRUPOL autodružstvo","Address":{"Street":"Milínská 30","City":"Příbram","District":"S","ZIP":"26101","Latitude":49.67728239,"Longitude":14.00639355},"LogoUrl":"https://downloadportal.blob.core.windows.net/k2ngtools/Images/QWH6CI3ILSCUYMDVZIFZW4BJZQ======.jpg","HasSales":true,"HasServices":true,"TotalRating":null,"IsOpenNow":false,"OpenHoursNotSpecified":false,"MergedOffset":0,"MergedLength":0,"Driving":null},{"GlobalId":"260-30190","Id":"dabf37d6-ce89-4860-aadd-d6c1b7e811d2","Name":"DRUPOL autodružstvo","Address":{"Street":"Komenského 947","City":"Zdice","District":"S","ZIP":"26751","Latitude":49.90500048,"Longitude":13.96291494},"LogoUrl":"https://downloadportal.blob.core.windows.net/k2ngtools/Images/QWH6CI3ILSCUYMDVZIFZW4BJZQ======.jpg","HasSales":true,"HasServices":true,"TotalRating":null,"IsOpenNow":false,"OpenHoursNotSpecified":false,"MergedOffset":0,"MergedLength":0,"Driving":null},{"GlobalId":"260-23965","Id":"98b9b406-7af4-40c9-93de-944d48454360","Name":"EURO CAR Zlín s.r.o.","Address":{"Street":"VIZOVICKÁ 4097","City":"Zlín","District":"Z","ZIP":"76001","Latitude":49.2242,"Longitude":17.7011192},"LogoUrl":null,"HasSales":false,"HasServices":true,"TotalRating":null,"IsOpenNow":false,"OpenHoursNotSpecified":false,"MergedOffset":0,"MergedLength":0,"Driving":null},{"GlobalId":"260-24571","Id":"daad6660-a7ff-4934-a93a-1e1eab1ed61a","Name":"FEMAT Radotín s.r.o.","Address":{"Street":"Výpadová 2313","City":"Praha 5 - Radotín - Autosalon ","District":"A","ZIP":"153 00","Latitude":49.98852328,"Longitude":14.37333584},"LogoUrl":"https://downloadportal.blob.core.windows.net/k2ngtools/Images/ROJ4YJZJSXLDP4SVPQLJT7GOQ4======.jpg","HasSales":true,"HasServices":true,"TotalRating":null,"IsOpenNow":false,"OpenHoursNotSpecified":false,"MergedOffset":0,"MergedLength":0,"Driving":null},{"GlobalId":"260-22535","Id":"fbe8cf6c-ff41-4d0b-acfa-e4a6b98abd88","Name":"FORTEX - AGS a.s.","Address":{"Street":"Jílová 1550/1","City":"Šumperk","District":"M","ZIP":"78792","Latitude":49.95571,"Longitude":16.964076},"LogoUrl":null,"HasSales":false,"HasServices":true,"TotalRating":null,"IsOpenNow":false,"OpenHoursNotSpecified":false,"MergedOffset":0,"MergedLength":0,"Driving":null},{"GlobalId":"260-2885A","Id":"21b40290-6489-4f13-a6dd-0acfc083423e","Name":"Gerhard Horejsek a spol., s.r.o.","Address":{"Street":"Česká 2725","City":"Česká Lípa - Česká ul.","District":"L","ZIP":"47001","Latitude":50.67825454,"Longitude":14.54428107},"LogoUrl":null,"HasSales":false,"HasServices":true,"TotalRating":null,"IsOpenNow":false,"OpenHoursNotSpecified":false,"MergedOffset":0,"MergedLength":0,"Driving":null},{"GlobalId":"260-2885C","Id":"b37ed120-ee07-4b83-872c-13fbb193723a","Name":"Gerhard Horejsek a spol., s.r.o.","Address":{"Street":"U terezínské křižovatky 164","City":"Litoměřice","District":"U","ZIP":"41201","Latitude":50.5166022,"Longitude":14.1362569},"LogoUrl":null,"HasSales":true,"HasServices":true,"TotalRating":null,"IsOpenNow":false,"OpenHoursNotSpecified":false,"MergedOffset":0,"MergedLength":0,"Driving":null},{"GlobalId":"260-2885E","Id":"f10548eb-dc7a-43fb-9c37-73dc0bb7ad81","Name":"Gerhard Horejsek a spol., s.r.o.","Address":{"Street":"Sluneční 3115","City":"Česká Lípa - Sluneční ul.","District":"L","ZIP":"47001","Latitude":50.69590716,"Longitude":14.54211652},"LogoUrl":null,"HasSales":true,"HasServices":true,"TotalRating":null,"IsOpenNow":false,"OpenHoursNotSpecified":false,"MergedOffset":0,"MergedLength":0,"Driving":null},{"GlobalId":"260-2885F","Id":"71e8092a-8a81-4787-9bbf-7711c7ffc566","Name":"Gerhard Horejsek a spol., s.r.o.","Address":{"Street":"Palackého čp. 4530/94","City":"Jablonec nad Nisou","District":"L","ZIP":"46604","Latitude":50.74454,"Longitude":15.1579069},"LogoUrl":null,"HasSales":true,"HasServices":true,"TotalRating":null,"IsOpenNow":true,"OpenHoursNotSpecified":false,"MergedOffset":0,"MergedLength":0,"Driving":null},{"GlobalId":"260-2885B","Id":"8b40498a-4894-4104-9457-d207691cdf38","Name":"Gerhard Horejsek a spol., s.r.o.","Address":{"Street":"Žižkova ul.2492","City":"Roudnice nad Labem","District":"U","ZIP":"41301","Latitude":50.414684629999996,"Longitude":14.24754024},"LogoUrl":null,"HasSales":true,"HasServices":true,"TotalRating":null,"IsOpenNow":false,"OpenHoursNotSpecified":false,"MergedOffset":0,"MergedLength":0,"Driving":null},{"GlobalId":"260-28851","Id":"01deecf3-6b3e-4bfe-91a5-f80773dfe2df","Name":"Gerhard Horejsek a spol., s.r.o.","Address":{"Street":"Oblouková 1416/19","City":"Děčín I. - St- Město","District":"U","ZIP":"40502","Latitude":50.77652706,"Longitude":14.217875},"LogoUrl":null,"HasSales":true,"HasServices":true,"TotalRating":null,"IsOpenNow":false,"OpenHoursNotSpecified":false,"MergedOffset":0,"MergedLength":0,"Driving":null},{"GlobalId":"260-29459","Id":"0bf6add0-e617-4c3a-bb24-03487f3dc485","Name":"HAVEX-auto s.r.o.","Address":{"Street":"Na Bělidle 503","City":"Vrchlabí","District":"H","ZIP":"54301","Latitude":50.61468552,"Longitude":15.62533736},"LogoUrl":"https://downloadportal.blob.core.windows.net/k2ngtools/Images/EZHEUGMA7QKBAFRO2MO2TCBAFY======.jpg","HasSales":true,"HasServices":true,"TotalRating":null,"IsOpenNow":false,"OpenHoursNotSpecified":false,"MergedOffset":0,"MergedLength":0,"Driving":null},{"GlobalId":"260-2945F","Id":"e15d823e-2647-4ee7-97d4-5d904dda8f50","Name":"HAVEX-auto s.r.o.","Address":{"Street":"Pražská 792/IV","City":"Chlumec nad Cidlinou","District":"H","ZIP":"50351","Latitude":50.1597503,"Longitude":15.44671834},"LogoUrl":"https://downloadportal.blob.core.windows.net/k2ngtools/Images/EZHEUGMA7QKBAFRO2MO2TCBAFY======.jpg","HasSales":true,"HasServices":true,"TotalRating":null,"IsOpenNow":false,"OpenHoursNotSpecified":false,"MergedOffset":0,"MergedLength":0,"Driving":null},{"GlobalId":"260-2945H","Id":"c946e7b0-0a3f-45f3-9295-9186966040de","Name":"HAVEX-auto s.r.o.","Address":{"Street":"Lodžská 814/24a","City":"Praha 8 ","District":"A","ZIP":"181 00","Latitude":50.13063421,"Longitude":14.42176044},"LogoUrl":"https://downloadportal.blob.core.windows.net/k2ngtools/Images/EZHEUGMA7QKBAFRO2MO2TCBAFY======.jpg","HasSales":true,"HasServices":true,"TotalRating":null,"IsOpenNow":false,"OpenHoursNotSpecified":false,"MergedOffset":0,"MergedLength":0,"Driving":null},{"GlobalId":"260-2945G","Id":"b5052fdd-f569-4d34-9f78-e57940293d57","Name":"HAVEX-auto s.r.o.","Address":{"Street":"Jateční 41","City":"Praha 7 - Holešovice","District":"A","ZIP":"17000","Latitude":50.1005822,"Longitude":14.4516992},"LogoUrl":"https://downloadportal.blob.core.windows.net/k2ngtools/Images/EZHEUGMA7QKBAFRO2MO2TCBAFY======.jpg","HasSales":true,"HasServices":true,"TotalRating":null,"IsOpenNow":false,"OpenHoursNotSpecified":false,"MergedOffset":0,"MergedLength":0,"Driving":null},{"GlobalId":"260-2945D","Id":"46f0b3d9-9c9a-4392-8e6b-ea11cf44639c","Name":"HAVEX-auto s.r.o.","Address":{"Street":"Pražská 1825","City":"Nová Paka","District":"H","ZIP":"50901","Latitude":50.48335046,"Longitude":15.50508857},"LogoUrl":"https://downloadportal.blob.core.windows.net/k2ngtools/Images/EZHEUGMA7QKBAFRO2MO2TCBAFY======.jpg","HasSales":true,"HasServices":true,"TotalRating":null,"IsOpenNow":false,"OpenHoursNotSpecified":false,"MergedOffset":0,"MergedLength":0,"Driving":null},{"GlobalId":"260-2945E","Id":"e502f581-1bd3-4288-80a4-f1b456d403aa","Name":"HAVEX-auto s.r.o.","Address":{"Street":"Průmyslová 909","City":"Kosmonosy","District":"S","ZIP":"29306","Latitude":50.42845858,"Longitude":14.93982911},"LogoUrl":"https://downloadportal.blob.core.windows.net/k2ngtools/Images/EZHEUGMA7QKBAFRO2MO2TCBAFY======.jpg","HasSales":true,"HasServices":true,"TotalRating":null,"IsOpenNow":true,"OpenHoursNotSpecified":false,"MergedOffset":0,"MergedLength":0,"Driving":null},{"GlobalId":"260-27189","Id":"a102caf6-d8c3-46b6-a9c5-11fa3d7500f3","Name":"Horácké autodružstvo","Address":{"Street":"Brněnská 123","City":"Třebíč","District":"J","ZIP":"67401","Latitude":49.2144775,"Longitude":15.9111119},"LogoUrl":"https://downloadportal.blob.core.windows.net/k2ngtools/Images/QTCHROHS73EWC56IQZZCTPFOTA======.jpg","HasSales":true,"HasServices":true,"TotalRating":null,"IsOpenNow":false,"OpenHoursNotSpecified":false,"MergedOffset":0,"MergedLength":0,"Driving":null},{"GlobalId":"260-25232","Id":"9eff855e-d0ce-4c26-943a-9dd08d2f9077","Name":"Horácké autodružstvo","Address":{"Street":"K novému nádraží 1345","City":"Velké Meziříčí","District":"J","ZIP":"59401","Latitude":49.35004811,"Longitude":16.02116704},"LogoUrl":null,"HasSales":true,"HasServices":true,"TotalRating":null,"IsOpenNow":false,"OpenHoursNotSpecified":false,"MergedOffset":0,"MergedLength":0,"Driving":null},{"GlobalId":"260-21482","Id":"e199ad16-1d12-48b8-a16f-bdc571fae648","Name":"INPRO Čáslav, s.r.o.","Address":{"Street":"Jeníkovská 1815","City":"Čáslav","District":"S","ZIP":"28601","Latitude":49.8976747,"Longitude":15.4064456},"LogoUrl":"https://downloadportal.blob.core.windows.net/k2ngtools/Images/ZENRAS2QUYAKWP4U6O7GOM7CFY======.png","HasSales":true,"HasServices":true,"TotalRating":null,"IsOpenNow":false,"OpenHoursNotSpecified":false,"MergedOffset":0,"MergedLength":0,"Driving":null},{"GlobalId":"260-24538","Id":"dae08d00-c146-460c-b91d-01338a46897d","Name":"IVACAR 2000, a.s.","Address":{"Street":"Krumlovská 30","City":"Ivančice","District":"B","ZIP":"66491","Latitude":49.0961756,"Longitude":16.3680708},"LogoUrl":"https://downloadportal.blob.core.windows.net/k2ngtools/Images/LY7GOKYMF77F2ZU777LKVPJSZE======.jpg","HasSales":true,"HasServices":true,"TotalRating":null,"IsOpenNow":false,"OpenHoursNotSpecified":false,"MergedOffset":0,"MergedLength":0,"Driving":null},{"GlobalId":"260-20265","Id":"3dd53737-2578-49e6-8742-81ab0f11ca16","Name":"Jaroslav Tichý - AUTO TICHÝ","Address":{"Street":"Ke Vrutici 1730","City":"Lysá nad Labem","District":"S","ZIP":"28922","Latitude":50.2121997,"Longitude":14.8452},"LogoUrl":"https://downloadportal.blob.core.windows.net/k2ngtools/Images/7TIWWKBRSOTYLFAMM2QOKVVBSM======.png","HasSales":true,"HasServices":true,"TotalRating":null,"IsOpenNow":false,"OpenHoursNotSpecified":false,"MergedOffset":0,"MergedLength":0,"Driving":null},{"GlobalId":"260-29688","Id":"37f0bd17-ca76-402d-91b2-1da64d71ae8b","Name":"JE & NE, spol. s r.o.","Address":{"Street":"Branka 36","City":"Brno - Komín","District":"B","ZIP":"62400","Latitude":49.2204728,"Longitude":16.5500569},"LogoUrl":"https://downloadportal.blob.core.windows.net/k2ngtools/Images/SUEL5YNPR7XKZ7PQAKBIOK57DU======.jpg","HasSales":true,"HasServices":true,"TotalRating":null,"IsOpenNow":false,"OpenHoursNotSpecified":false,"MergedOffset":0,"MergedLength":0,"Driving":null},{"GlobalId":"260-20583","Id":"2ca5a5a7-8d7d-4300-bce7-3ae18a5833e0","Name":"K.E.I. GROUP, s.r.o.","Address":{"Street":"Žarošická 21","City":"Brno","District":"B","ZIP":"62800","Latitude":49.20712262,"Longitude":16.66505814},"LogoUrl":"https://downloadportal.blob.core.windows.net/k2ngtools/Images/W62IG2HSQQ6BIV6KFAZR4NWEM4======.png","HasSales":true,"HasServices":true,"TotalRating":null,"IsOpenNow":false,"OpenHoursNotSpecified":false,"MergedOffset":0,"MergedLength":0,"Driving":null},{"GlobalId":"260-28592","Id":"3e840566-be91-4837-8c9d-c43127732103","Name":"Karel Frolík - AUTOSERVIS","Address":{"Street":"Táborská 2400","City":"Písek","District":"C","ZIP":"39701","Latitude":49.31350926,"Longitude":14.16219771},"LogoUrl":"https://downloadportal.blob.core.windows.net/k2ngtools/Images/OIT6XHOUQFETSXPNIV4MQHVAVA======.png","HasSales":true,"HasServices":true,"TotalRating":null,"IsOpenNow":false,"OpenHoursNotSpecified":false,"MergedOffset":0,"MergedLength":0,"Driving":null},{"GlobalId":"260-21997","Id":"2ab42048-ca49-4d29-97c7-89012da4c92b","Name":"KARIREAL a.s.","Address":{"Street":"Frýdecká 272","City":"Třinec","District":"T","ZIP":"73961","Latitude":49.67462853,"Longitude":18.66253674},"LogoUrl":"https://downloadportal.blob.core.windows.net/k2ngtools/Images/IYHZDDJVFCEEVS5VSF76G6PMVI======.jpg","HasSales":true,"HasServices":true,"TotalRating":null,"IsOpenNow":false,"OpenHoursNotSpecified":false,"MergedOffset":0,"MergedLength":0,"Driving":null},{"GlobalId":"260-2199A","Id":"3a402df3-0497-4fa7-9bcf-f219bc6c6382","Name":"KARIREAL a.s.","Address":{"Street":"Oldřichovice 793","City":"Oldřichovice","District":"T","ZIP":"73961","Latitude":49.6622081,"Longitude":18.6570764},"LogoUrl":"https://downloadportal.blob.core.windows.net/k2ngtools/Images/IYHZDDJVFCEEVS5VSF76G6PMVI======.jpg","HasSales":true,"HasServices":true,"TotalRating":null,"IsOpenNow":false,"OpenHoursNotSpecified":false,"MergedOffset":0,"MergedLength":0,"Driving":null},{"GlobalId":"260-21059","Id":"000e11d8-1190-482c-8543-8319d95d7f51","Name":"KONTAKT - služby motoristům, spol. s r.o.","Address":{"Street":"Svobodova 2050","City":"Turnov","District":"L","ZIP":"51101","Latitude":50.5796531,"Longitude":15.15483},"LogoUrl":null,"HasSales":true,"HasServices":true,"TotalRating":null,"IsOpenNow":false,"OpenHoursNotSpecified":false,"MergedOffset":0,"MergedLength":0,"Driving":null},{"GlobalId":"260-29050","Id":"cbdabf3a-36d5-4855-a403-0d5e4b607710","Name":"LAURETA AUTO  a.s.","Address":{"Street":"Nádražní 307","City":"Mladá Boleslav","District":"S","ZIP":"29301","Latitude":50.40486,"Longitude":14.8925958},"LogoUrl":"https://downloadportal.blob.core.windows.net/k2ngtools/Images/KDTLWU5V4ZUDSOAZ3DZUXSE7VY======.png","HasSales":true,"HasServices":true,"TotalRating":null,"IsOpenNow":false,"OpenHoursNotSpecified":false,"MergedOffset":0,"MergedLength":0,"Driving":null},{"GlobalId":"260-27316","Id":"5a15e17b-758c-4636-8d11-09054263c272","Name":"Libor Suchý, autoprodejna","Address":{"Street":"Dlouhá 81","City":"Nový Šaldorf-Sedlešovice","District":"B","ZIP":"67181","Latitude":48.82874034,"Longitude":16.06214851},"LogoUrl":"https://downloadportal.blob.core.windows.net/k2ngtools/Images/QUFBKPK6FWJNGKPNUPS3EO54A4======.jpg","HasSales":true,"HasServices":true,"TotalRating":null,"IsOpenNow":false,"OpenHoursNotSpecified":false,"MergedOffset":0,"MergedLength":0,"Driving":null},{"GlobalId":"260-2594A","Id":"39fb57d8-7975-46e9-9cba-0081d525de01","Name":"Louda Auto a.s.","Address":{"Street":"Hradecká 555","City":"Pardubice - Hradecká","District":"E","ZIP":"53009","Latitude":50.05429732,"Longitude":15.76894283},"LogoUrl":"https://downloadportal.blob.core.windows.net/k2ngtools/Images/USHXCSYRZWAYLFXSZWYZOOTVQA======.jpg","HasSales":true,"HasServices":true,"TotalRating":null,"IsOpenNow":false,"OpenHoursNotSpecified":false,"MergedOffset":0,"MergedLength":0,"Driving":null},{"GlobalId":"260-2594G","Id":"88d34c45-ddfe-4a61-9957-259820c652ed","Name":"Louda Auto a.s.","Address":{"Street":"Dvořákova 83","City":"Teplice","District":"U","ZIP":"41510","Latitude":50.6621611,"Longitude":13.8743486},"LogoUrl":null,"HasSales":true,"HasServices":true,"TotalRating":null,"IsOpenNow":false,"OpenHoursNotSpecified":false,"MergedOffset":0,"MergedLength":0,"Driving":null},{"GlobalId":"260-2594I","Id":"db80cad1-a7eb-430b-819d-2b3dd94da0e0","Name":"Louda Auto a.s.","Address":{"Street":"Dimitrovova 2","City":"Svitavy","District":"E","ZIP":"56802","Latitude":49.7546353,"Longitude":16.4648167},"LogoUrl":"https://downloadportal.blob.core.windows.net/k2ngtools/Images/USHXCSYRZWAYLFXSZWYZOOTVQA======.jpg","HasSales":true,"HasServices":true,"TotalRating":null,"IsOpenNow":false,"OpenHoursNotSpecified":false,"MergedOffset":0,"MergedLength":0,"Driving":null},{"GlobalId":"260-2594E","Id":"9f8921ab-20f4-4239-8146-31804f263664","Name":"Louda Auto a.s.","Address":{"Street":"Havlíčkova ul. 158","City":"Kolín IV.","District":"S","ZIP":"28002","Latitude":50.004653,"Longitude":15.23717},"LogoUrl":"https://downloadportal.blob.core.windows.net/k2ngtools/Images/USHXCSYRZWAYLFXSZWYZOOTVQA======.jpg","HasSales":true,"HasServices":true,"TotalRating":null,"IsOpenNow":false,"OpenHoursNotSpecified":false,"MergedOffset":0,"MergedLength":0,"Driving":null},{"GlobalId":"260-2594M","Id":"0847ff8a-d3b4-48c3-a489-4ba0ea5c0050","Name":"Louda Auto a.s.","Address":{"Street":"Znojemská 4461/86a","City":"Jihlava","District":"J","ZIP":"58601","Latitude":49.3807589,"Longitude":15.5910681},"LogoUrl":null,"HasSales":true,"HasServices":true,"TotalRating":null,"IsOpenNow":false,"OpenHoursNotSpecified":false,"MergedOffset":0,"MergedLength":0,"Driving":null},{"GlobalId":"260-2594J","Id":"231a65ce-691e-41cf-9981-77b8944ce63b","Name":"Louda Auto a.s.","Address":{"Street":"Hněvkovského 603/81","City":"Brno","District":"B","ZIP":"61700","Latitude":49.1671067,"Longitude":16.6296094},"LogoUrl":"https://downloadportal.blob.core.windows.net/k2ngtools/Images/4MW3Z7VGW5AT7MFDM7LUDFB76E======.jpg","HasSales":false,"HasServices":true,"TotalRating":null,"IsOpenNow":false,"OpenHoursNotSpecified":false,"MergedOffset":0,"MergedLength":0,"Driving":null},{"GlobalId":"260-2594H","Id":"099742c2-4b15-43d3-9541-97a90cb54ce1","Name":"Louda Auto a.s.","Address":{"Street":"Kolbenova 898/37a","City":"Praha 9","District":"A","ZIP":"19800","Latitude":50.1081944,"Longitude":14.5491389},"LogoUrl":"https://downloadportal.blob.core.windows.net/k2ngtools/Images/USHXCSYRZWAYLFXSZWYZOOTVQA======.jpg","HasSales":true,"HasServices":true,"TotalRating":null,"IsOpenNow":false,"OpenHoursNotSpecified":false,"MergedOffset":0,"MergedLength":0,"Driving":null},{"GlobalId":"260-2594C","Id":"447808d7-2a27-41e5-bf5a-c4a98edfde97","Name":"Louda Auto a.s.","Address":{"Street":"Teplého","City":"Pardubice - Teplého","District":"E","ZIP":"53002","Latitude":50.0271969,"Longitude":15.7629747},"LogoUrl":"https://downloadportal.blob.core.windows.net/k2ngtools/Images/USHXCSYRZWAYLFXSZWYZOOTVQA======.jpg","HasSales":false,"HasServices":true,"TotalRating":null,"IsOpenNow":false,"OpenHoursNotSpecified":false,"MergedOffset":0,"MergedLength":0,"Driving":null},{"GlobalId":"260-25941","Id":"4cfa71ab-6ac8-4fef-ae36-e11e122a4958","Name":"Louda Auto a.s.","Address":{"Street":"Choťánky 166","City":"Poděbrady","District":"S","ZIP":"29001","Latitude":50.14500969,"Longitude":15.17097652},"LogoUrl":"https://downloadportal.blob.core.windows.net/k2ngtools/Images/USHXCSYRZWAYLFXSZWYZOOTVQA======.jpg","HasSales":true,"HasServices":true,"TotalRating":null,"IsOpenNow":false,"OpenHoursNotSpecified":false,"MergedOffset":0,"MergedLength":0,"Driving":null},{"GlobalId":"260-31050","Id":"9ecda416-67ea-48b9-9907-e9c8e9c96cdb","Name":"Lumír  Tvarůžka AUTOMOTOR s.r.o.","Address":{"Street":"Chrudimská 92","City":"Čavisov","District":"T","ZIP":"74766","Latitude":49.829618,"Longitude":18.07921},"LogoUrl":null,"HasSales":false,"HasServices":true,"TotalRating":null,"IsOpenNow":false,"OpenHoursNotSpecified":false,"MergedOffset":0,"MergedLength":0,"Driving":null},{"GlobalId":"260-24767","Id":"3fd8afcb-dc54-4044-ac10-afa5c6ab0dc9","Name":"MAGNUM CAR, a.s.","Address":{"Street":"Brněnská 37/444","City":"Vyškov","District":"B","ZIP":"68201","Latitude":49.2671122,"Longitude":16.9830619},"LogoUrl":"https://downloadportal.blob.core.windows.net/k2ngtools/Images/XEBMD2NWLODBUS4JXNYFEPJPSM======.jpg","HasSales":true,"HasServices":true,"TotalRating":null,"IsOpenNow":false,"OpenHoursNotSpecified":false,"MergedOffset":0,"MergedLength":0,"Driving":null},{"GlobalId":"260-2896C","Id":"2366ec01-c87d-462d-aae1-0ac9527be174","Name":"Manfred Schöner - AUTOSERVIS","Address":{"Street":"Jáchymovská 53","City":"Karlovy Vary","District":"K","ZIP":"36004","Latitude":50.24423,"Longitude":12.8745681},"LogoUrl":"https://downloadportal.blob.core.windows.net/k2ngtools/Images/CXAT6MJDRWMR7UAA2XJYMHVU3A======.jpg","HasSales":true,"HasServices":true,"TotalRating":null,"IsOpenNow":false,"OpenHoursNotSpecified":false,"MergedOffset":0,"MergedLength":0,"Driving":null},{"GlobalId":"260-2896A","Id":"d8a0a9cd-7d26-4630-a72b-3e4923b52c95","Name":"Manfred Schöner - AUTOSERVIS","Address":{"Street":"Česká 225","City":"Karlovy Vary - Tašovice","District":"K","ZIP":"36018","Latitude":50.21410016,"Longitude":12.81954825},"LogoUrl":"https://downloadportal.blob.core.windows.net/k2ngtools/Images/CXAT6MJDRWMR7UAA2XJYMHVU3A======.jpg","HasSales":true,"HasServices":true,"TotalRating":null,"IsOpenNow":false,"OpenHoursNotSpecified":false,"MergedOffset":0,"MergedLength":0,"Driving":null},{"GlobalId":"260-28967","Id":"afb6cdf2-2775-4252-9150-d80650499ae7","Name":"Manfred Schöner - AUTOSERVIS","Address":{"Street":"Křižíkova 1624","City":"Sokolov","District":"K","ZIP":"35605","Latitude":50.17476464,"Longitude":12.66704321},"LogoUrl":"https://downloadportal.blob.core.windows.net/k2ngtools/Images/CXAT6MJDRWMR7UAA2XJYMHVU3A======.jpg","HasSales":true,"HasServices":true,"TotalRating":null,"IsOpenNow":false,"OpenHoursNotSpecified":false,"MergedOffset":0,"MergedLength":0,"Driving":null},{"GlobalId":"260-2896B","Id":"46d83f68-de69-413c-a8e2-ed66a0229eb9","Name":"Manfred Schöner - AUTOSERVIS","Address":{"Street":"Pražská 159/50","City":"Cheb","District":"K","ZIP":"35002","Latitude":50.08337206,"Longitude":12.40746439},"LogoUrl":"https://downloadportal.blob.core.windows.net/k2ngtools/Images/CXAT6MJDRWMR7UAA2XJYMHVU3A======.jpg","HasSales":true,"HasServices":true,"TotalRating":null,"IsOpenNow":false,"OpenHoursNotSpecified":false,"MergedOffset":0,"MergedLength":0,"Driving":null},{"GlobalId":"260-21881","Id":"00491c94-0907-4b3e-9149-44e66f84ab10","Name":"MATRIX a.s.","Address":{"Street":"Lipovka 142","City":"Rychnov nad Kněžnou","District":"H","ZIP":"51601","Latitude":50.1821139,"Longitude":16.2578547},"LogoUrl":"https://downloadportal.blob.core.windows.net/k2ngtools/Images/YDUH43I2URCQTJM65CDRKQRBFA======.jpg","HasSales":true,"HasServices":true,"TotalRating":null,"IsOpenNow":false,"OpenHoursNotSpecified":false,"MergedOffset":0,"MergedLength":0,"Driving":null},{"GlobalId":"260-21768","Id":"85da55e0-5972-4bcd-9259-ccf3ab51c6ce","Name":"Mototechna Servis s.r.o.","Address":{"Street":"Dopraváků 723","City":"Praha 8 - Kobylisy","District":"A","ZIP":"18400","Latitude":50.13807521,"Longitude":14.44753647},"LogoUrl":null,"HasSales":false,"HasServices":true,"TotalRating":null,"IsOpenNow":false,"OpenHoursNotSpecified":false,"MergedOffset":0,"MergedLength":0,"Driving":null},{"GlobalId":"260-28932","Id":"c171780d-4845-404c-9100-7cd679a88990","Name":"NH Car, s.r.o. ","Address":{"Street":"Broumarská čp. 1503","City":"Praha 9 - Černý Most","District":"A","ZIP":"19800","Latitude":50.10370941,"Longitude":14.55650121},"LogoUrl":"https://downloadportal.blob.core.windows.net/k2ngtools/Images/365WXPDHJ25SVE3IKPDWATY3DY======.jpg","HasSales":true,"HasServices":true,"TotalRating":null,"IsOpenNow":false,"OpenHoursNotSpecified":false,"MergedOffset":0,"MergedLength":0,"Driving":null},{"GlobalId":"260-2893A","Id":"9267743d-541c-4ac0-856a-f44a97a6703e","Name":"NH Car, s.r.o. ","Address":{"Street":"Chodecká 2341/2","City":"Praha 6 - Strahov","District":"A","ZIP":"16900","Latitude":50.0838144,"Longitude":14.3842364},"LogoUrl":"https://downloadportal.blob.core.windows.net/k2ngtools/Images/365WXPDHJ25SVE3IKPDWATY3DY======.jpg","HasSales":true,"HasServices":true,"TotalRating":null,"IsOpenNow":false,"OpenHoursNotSpecified":false,"MergedOffset":0,"MergedLength":0,"Driving":null},{"GlobalId":"260-2286B","Id":"cefbf46e-480e-4481-82e6-25cb066b45d1","Name":"OKIM spol. s r.o.","Address":{"Street":"ul. 5. Května 2645","City":"Louny","District":"U","ZIP":"44001","Latitude":50.35107436,"Longitude":13.81610155},"LogoUrl":"https://downloadportal.blob.core.windows.net/k2ngtools/Images/MVZAQDYYXCDTU7MLF5BKU6LKJQ======.jpg","HasSales":true,"HasServices":true,"TotalRating":null,"IsOpenNow":false,"OpenHoursNotSpecified":false,"MergedOffset":0,"MergedLength":0,"Driving":null},{"GlobalId":"260-2286A","Id":"43f9c6b8-2a57-4c7a-9424-f1b20024f42f","Name":"OKIM spol. s r.o.","Address":{"Street":"Terezínská 1119","City":"Lovosice","District":"U","ZIP":"41002","Latitude":50.51133881,"Longitude":14.06329125},"LogoUrl":"https://downloadportal.blob.core.windows.net/k2ngtools/Images/MVZAQDYYXCDTU7MLF5BKU6LKJQ======.jpg","HasSales":true,"HasServices":true,"TotalRating":null,"IsOpenNow":false,"OpenHoursNotSpecified":false,"MergedOffset":0,"MergedLength":0,"Driving":null},{"GlobalId":"260-22861","Id":"87ab81c0-a51e-4855-b5be-fca1a32bea31","Name":"OKIM spol. s r.o.","Address":{"Street":"Masarykova 1028","City":"Ústí nad Labem","District":"U","ZIP":"40001","Latitude":50.67852818,"Longitude":14.01300788},"LogoUrl":"https://downloadportal.blob.core.windows.net/k2ngtools/Images/MVZAQDYYXCDTU7MLF5BKU6LKJQ======.jpg","HasSales":true,"HasServices":true,"TotalRating":null,"IsOpenNow":false,"OpenHoursNotSpecified":false,"MergedOffset":0,"MergedLength":0,"Driving":null},{"GlobalId":"260-20273","Id":"3d588314-04f0-496e-b05e-112c8da37c6e","Name":"Olfin Car Palace, s.r.o.","Address":{"Street":"Na Rybárně 203/5","City":"Hradec Králové","District":"H","ZIP":"50002","Latitude":50.1963931,"Longitude":15.812785},"LogoUrl":"https://downloadportal.blob.core.windows.net/k2ngtools/Images/WE7TIHNLBB3DCXI52LCGQSCZRA======.jpg","HasSales":false,"HasServices":true,"TotalRating":null,"IsOpenNow":false,"OpenHoursNotSpecified":false,"MergedOffset":0,"MergedLength":0,"Driving":null},{"GlobalId":"260-30240","Id":"bde4324e-e7f8-4e7b-9c02-f5c59b23dcb5","Name":"OLFIN Car s.r.o.","Address":{"Street":"Na Rybárně 1670","City":"Hradec Králové","District":"H","ZIP":"50002","Latitude":50.1955314,"Longitude":15.813745},"LogoUrl":"https://downloadportal.blob.core.windows.net/k2ngtools/Images/AJLGL3Y7SJTQ6PHXE3CCI7O7XM======.jpg","HasSales":true,"HasServices":true,"TotalRating":null,"IsOpenNow":false,"OpenHoursNotSpecified":false,"MergedOffset":0,"MergedLength":0,"Driving":null},{"GlobalId":"260-27898","Id":"3700f853-55e1-4760-8ac0-966eaf80ec46","Name":"Porsche Inter Auto CZ spol.  s.r.o., o.z. Auto Heller Ostrava","Address":{"Street":"Cihelní 3160/49b","City":"Ostrava  - Moravská Ostrava","District":"T","ZIP":"70200","Latitude":49.8405931,"Longitude":18.2727322},"LogoUrl":"https://downloadportal.blob.core.windows.net/k2ngtools/Images/GFFCFKXCDNJXJGAKLHKA3QSYCE======.jpg","HasSales":true,"HasServices":true,"TotalRating":null,"IsOpenNow":false,"OpenHoursNotSpecified":false,"MergedOffset":0,"MergedLength":0,"Driving":null},{"GlobalId":"260-21636","Id":"78c67c93-3603-42c0-8e23-1f3099c3ae12","Name":"Porsche Inter Auto CZ spol. s r. o. - Porsche Olomouc ","Address":{"Street":"Kafkova 474/1","City":"Olomouc","District":"M","ZIP":"77900","Latitude":49.57287614,"Longitude":17.22797871},"LogoUrl":"https://downloadportal.blob.core.windows.net/k2ngtools/Images/2JONQHE7CZLZJTBTNCNBAXPY2U======.jpg","HasSales":true,"HasServices":true,"TotalRating":null,"IsOpenNow":false,"OpenHoursNotSpecified":false,"MergedOffset":0,"MergedLength":0,"Driving":null},{"GlobalId":"260-22675","Id":"fa5575e4-d536-44bd-933a-466a690703e5","Name":"Porsche Inter Auto CZ spol. s r.o.","Address":{"Street":"Liberecká 12","City":"Praha 8","District":"A","ZIP":"18200","Latitude":50.1328961,"Longitude":14.4923456},"LogoUrl":"https://downloadportal.blob.core.windows.net/k2ngtools/Images/XU3V6HHLOWOJHZN45WOQ62JXCA======.jpg","HasSales":true,"HasServices":true,"TotalRating":null,"IsOpenNow":false,"OpenHoursNotSpecified":false,"MergedOffset":0,"MergedLength":0,"Driving":null},{"GlobalId":"260-22756","Id":"d3d1b708-07d2-443c-b162-608d13d25fc3","Name":"Porsche Inter Auto CZ spol. s r.o.","Address":{"Street":"Podnikatelská 1","City":"Plzeň - Borská pole","District":"P","ZIP":"30100","Latitude":49.72522131,"Longitude":13.34501445},"LogoUrl":"https://downloadportal.blob.core.windows.net/k2ngtools/Images/WHRDIRQS4S42U7KRI225ES5DV4======.jpg","HasSales":true,"HasServices":true,"TotalRating":null,"IsOpenNow":false,"OpenHoursNotSpecified":false,"MergedOffset":0,"MergedLength":0,"Driving":null},{"GlobalId":"260-21270","Id":"a21e29d6-f10e-4961-8c6b-a384b427d5f6","Name":"Porsche Inter Auto CZ spol. s r.o.","Address":{"Street":"Na Okrouhlíku 1708/25b","City":"Hradec Králové","District":"H","ZIP":"50002","Latitude":50.2189211,"Longitude":15.8132142},"LogoUrl":"https://downloadportal.blob.core.windows.net/k2ngtools/Images/VF5HZNHQ4YNCON2CZXULNSBR7A======.jpg","HasSales":true,"HasServices":true,"TotalRating":null,"IsOpenNow":false,"OpenHoursNotSpecified":false,"MergedOffset":0,"MergedLength":0,"Driving":null},{"GlobalId":"260-23841","Id":"18ae3957-3d2d-4f6b-bd38-e3b887d04dc0","Name":"Porsche Inter Auto CZ spol. s r.o.","Address":{"Street":"Okružní ulice 2557","City":"České Budějovice 3","District":"C","ZIP":"370 04","Latitude":49.0013481,"Longitude":14.4861653},"LogoUrl":"https://downloadportal.blob.core.windows.net/k2ngtools/Images/SUCKYMEOC4WSE54MLYGCAKFRLE======.jpg","HasSales":true,"HasServices":true,"TotalRating":null,"IsOpenNow":false,"OpenHoursNotSpecified":false,"MergedOffset":0,"MergedLength":0,"Driving":null},{"GlobalId":"260-29440","Id":"e88defae-bec6-4954-808d-fc88aba2adb8","Name":"Porsche Inter Auto CZ spol. s r.o., o.z. Auto Heller Opava","Address":{"Street":"Bruntálská 7","City":"Opava - Jaktař","District":"T","ZIP":"74707","Latitude":49.9519242,"Longitude":17.8689825},"LogoUrl":"https://downloadportal.blob.core.windows.net/k2ngtools/Images/GFFCFKXCDNJXJGAKLHKA3QSYCE======.jpg","HasSales":false,"HasServices":true,"TotalRating":null,"IsOpenNow":false,"OpenHoursNotSpecified":false,"MergedOffset":0,"MergedLength":0,"Driving":null},{"GlobalId":"260-23256","Id":"79480ac2-d6a5-4bda-975a-ea3c9a7d2132","Name":"Porsche Inter Auto CZ, spol. s r.o. - Porsche Brno","Address":{"Street":"Řipská 13a","City":"Brno","District":"B","ZIP":"62700","Latitude":49.1778494,"Longitude":16.6749556},"LogoUrl":"https://downloadportal.blob.core.windows.net/k2ngtools/Images/BMFZ3NOPAD4BZ3MOPVRBHPGYXI======.jpg","HasSales":true,"HasServices":true,"TotalRating":null,"IsOpenNow":false,"OpenHoursNotSpecified":false,"MergedOffset":0,"MergedLength":0,"Driving":null},{"GlobalId":"260-20745","Id":"79730c03-8bfa-44af-9233-b9d93d8e44e5","Name":"Porsche Inter Auto CZ, spol. s r.o. - Porsche Praha-Smíchov","Address":{"Street":"Vrchlického 31/18","City":"Praha 5","District":"A","ZIP":"15000","Latitude":50.0695581,"Longitude":14.3782242},"LogoUrl":null,"HasSales":true,"HasServices":true,"TotalRating":null,"IsOpenNow":false,"OpenHoursNotSpecified":false,"MergedOffset":0,"MergedLength":0,"Driving":null},{"GlobalId":"260-24376","Id":"7972dbf2-28aa-4e67-a2b4-7d85159e9e4d","Name":"PP AUTOCENTRUM s.r.o.","Address":{"Street":"Tř. 1. máje 328","City":"Hranice 1 - Město","District":"M","ZIP":"75301","Latitude":49.5575181,"Longitude":17.7379703},"LogoUrl":"https://downloadportal.blob.core.windows.net/k2ngtools/Images/UUG2MKKRVME4KPOLNGB652UWBU======.png","HasSales":true,"HasServices":true,"TotalRating":null,"IsOpenNow":false,"OpenHoursNotSpecified":false,"MergedOffset":0,"MergedLength":0,"Driving":null},{"GlobalId":"260-27570","Id":"87ec6561-c358-4705-bcaa-7a54a6efd7cf","Name":"Přerost a Švorc - auto, s.r.o.","Address":{"Street":"Veleslavínská 39","City":"Praha 6","District":"A","ZIP":"16200","Latitude":50.094075,"Longitude":14.3487875},"LogoUrl":"https://downloadportal.blob.core.windows.net/k2ngtools/Images/UY3BEBQ5JCRGGW4ZZYCUQ2UCMI======.jpg","HasSales":true,"HasServices":true,"TotalRating":null,"IsOpenNow":false,"OpenHoursNotSpecified":false,"MergedOffset":0,"MergedLength":0,"Driving":null},{"GlobalId":"260-20711","Id":"8c919d8e-70c5-4b98-806f-e74ba86a5cde","Name":"Prima, komanditní společnost","Address":{"Street":"Velehradská 4260","City":"Kroměříž","District":"Z","ZIP":"76701","Latitude":49.28836869,"Longitude":17.38978028},"LogoUrl":"https://downloadportal.blob.core.windows.net/k2ngtools/Images/TGQVKREKCQUYGAL32F2KPXWCXQ======.png","HasSales":false,"HasServices":true,"TotalRating":null,"IsOpenNow":false,"OpenHoursNotSpecified":false,"MergedOffset":0,"MergedLength":0,"Driving":null},{"GlobalId":"260-21121","Id":"4f871588-dd35-4ea9-8164-a03ff5e70036","Name":"PROFI AUTO SERVIS s.r.o.","Address":{"Street":"Holušická 2253/1","City":"Praha 4","District":"A","ZIP":"148 00","Latitude":50.032762,"Longitude":14.486783},"LogoUrl":null,"HasSales":false,"HasServices":true,"TotalRating":null,"IsOpenNow":false,"OpenHoursNotSpecified":false,"MergedOffset":0,"MergedLength":0,"Driving":null},{"GlobalId":"260-23167","Id":"1d32e69f-263a-445e-811f-17c58b228951","Name":"PV-AUTO spol. s r.o.","Address":{"Street":"Brněnská 108","City":"Prostějov","District":"M","ZIP":"79601","Latitude":49.4546067,"Longitude":17.1109994},"LogoUrl":"https://downloadportal.blob.core.windows.net/k2ngtools/Images/MM2EWKIW625T3YI3PWK3GPRT5E======.png","HasSales":true,"HasServices":true,"TotalRating":null,"IsOpenNow":false,"OpenHoursNotSpecified":false,"MergedOffset":0,"MergedLength":0,"Driving":null},{"GlobalId":"260-22021","Id":"be9f1586-a7c8-44ff-9330-187a7a1e4ebe","Name":"RT TORAX,  s.r.o.","Address":{"Street":" Sjízdná 2","City":"Ostrava - Svinov","District":"T","ZIP":"721 00","Latitude":49.8256811,"Longitude":18.1975111},"LogoUrl":null,"HasSales":false,"HasServices":true,"TotalRating":null,"IsOpenNow":false,"OpenHoursNotSpecified":false,"MergedOffset":0,"MergedLength":0,"Driving":null},{"GlobalId":"260-2768A","Id":"9ed0b72f-cc22-4171-84da-9a89d766a21a","Name":"SAMOHÝL MOTOR a.s.","Address":{"Street":"Štěpánská 383","City":"Vsetín","District":"Z","ZIP":"75501","Latitude":49.3367219,"Longitude":17.9886939},"LogoUrl":"https://downloadportal.blob.core.windows.net/k2ngtools/Images/ON4ZLZPCPXZ4XONOXWYSB4AQ2Y======.png","HasSales":true,"HasServices":true,"TotalRating":null,"IsOpenNow":false,"OpenHoursNotSpecified":false,"MergedOffset":0,"MergedLength":0,"Driving":null},{"GlobalId":"260-27685","Id":"ebcbbc98-2f8d-4ffe-923a-7968739b5420","Name":"SAMOHÝL MOTOR a.s.","Address":{"Street":"tř. T. Bati 642","City":"Zlín","District":"Z","ZIP":"76302","Latitude":49.217011,"Longitude":17.626949},"LogoUrl":"https://downloadportal.blob.core.windows.net/k2ngtools/Images/ON4ZLZPCPXZ4XONOXWYSB4AQ2Y======.png","HasSales":true,"HasServices":true,"TotalRating":null,"IsOpenNow":false,"OpenHoursNotSpecified":false,"MergedOffset":0,"MergedLength":0,"Driving":null},{"GlobalId":"260-2768B","Id":"71f4c2dc-aa60-4971-bcbe-1c81c22d9316","Name":"SAMOHÝL MOTOR a.s.","Address":{"Street":"Kosmonautů  846/2","City":"Olomouc","District":"M","ZIP":"77900","Latitude":49.58939031,"Longitude":17.26293325},"LogoUrl":"https://downloadportal.blob.core.windows.net/k2ngtools/Images/ON4ZLZPCPXZ4XONOXWYSB4AQ2Y======.png","HasSales":true,"HasServices":true,"TotalRating":null,"IsOpenNow":false,"OpenHoursNotSpecified":false,"MergedOffset":0,"MergedLength":0,"Driving":null},{"GlobalId":"260-21610","Id":"ce782870-d35b-4409-bec3-142bb7b57109","Name":"Servis AUTO OPAT s.r.o.","Address":{"Street":"Komerční zóna Nupaky č.p. 467","City":"Nupaky","District":"A","ZIP":"25101","Latitude":49.9906778,"Longitude":14.5935747},"LogoUrl":"https://downloadportal.blob.core.windows.net/k2ngtools/Images/4E2ND5IQEPVAQDGV37WLABATBE======.jpg","HasSales":true,"HasServices":true,"TotalRating":null,"IsOpenNow":false,"OpenHoursNotSpecified":false,"MergedOffset":0,"MergedLength":0,"Driving":null},{"GlobalId":"260-2161A","Id":"74a32972-44a6-49c5-8c4f-64034822712e","Name":"Servis AUTO OPAT s.r.o.","Address":{"Street":"Legerova 1853/24","City":"Praha 2","District":"A","ZIP":"12000","Latitude":50.071514,"Longitude":14.430938},"LogoUrl":"https://downloadportal.blob.core.windows.net/k2ngtools/Images/4E2ND5IQEPVAQDGV37WLABATBE======.jpg","HasSales":false,"HasServices":true,"TotalRating":null,"IsOpenNow":false,"OpenHoursNotSpecified":false,"MergedOffset":0,"MergedLength":0,"Driving":null},{"GlobalId":"260-25216","Id":"e6d9fee3-0983-4b99-9307-ba405d94ec15","Name":"ŠKODA Servisní centrum","Address":{"Street":"Boleslavská 366","City":"Kosmonosy","District":"S","ZIP":"29306","Latitude":50.4340969,"Longitude":14.9263483},"LogoUrl":null,"HasSales":false,"HasServices":true,"TotalRating":null,"IsOpenNow":false,"OpenHoursNotSpecified":false,"MergedOffset":0,"MergedLength":0,"Driving":null},{"GlobalId":"260-22616","Id":"fc236298-74bb-454d-ac30-9234733b95af","Name":"TOP AUTOSALON BLANSKO s.r.o.","Address":{"Street":"Svitavská 2329","City":"Blansko","District":"B","ZIP":"67801","Latitude":49.35497347,"Longitude":16.64592594},"LogoUrl":"https://downloadportal.blob.core.windows.net/k2ngtools/Images/OXXIZXIXVNDL2SMG2GY5BVCVUM======.jpg","HasSales":true,"HasServices":true,"TotalRating":null,"IsOpenNow":false,"OpenHoursNotSpecified":false,"MergedOffset":0,"MergedLength":0,"Driving":null},{"GlobalId":"260-27073","Id":"02948c1a-71ff-4e31-afa4-5604110bb65d","Name":"TUkas ČSAO a.s.","Address":{"Street":"Černokostelecká 144/565","City":"Praha 10","District":"A","ZIP":"10834","Latitude":50.07660078,"Longitude":14.52306479},"LogoUrl":"https://downloadportal.blob.core.windows.net/k2ngtools/Images/QSPN7ALLYBEZZBPY32LJHAHXRM======.jpg","HasSales":false,"HasServices":true,"TotalRating":null,"IsOpenNow":false,"OpenHoursNotSpecified":false,"MergedOffset":0,"MergedLength":0,"Driving":null},{"GlobalId":"260-27162","Id":"7b486fbe-2252-4aba-9da6-b0720435bcf8","Name":"TUkas, a.s.","Address":{"Street":"K Hrušovu 344/6","City":"Praha 10","District":"A","ZIP":"10200","Latitude":50.06874737,"Longitude":14.54308748},"LogoUrl":"https://downloadportal.blob.core.windows.net/k2ngtools/Images/QSPN7ALLYBEZZBPY32LJHAHXRM======.jpg","HasSales":true,"HasServices":true,"TotalRating":null,"IsOpenNow":true,"OpenHoursNotSpecified":false,"MergedOffset":0,"MergedLength":0,"Driving":null},{"GlobalId":"260-2716B","Id":"3af224fe-df24-474f-8e45-d27c97783a7b","Name":"TUkas, a.s.","Address":{"Street":"K Vltavě 1911/33","City":"Praha 4","District":"A","ZIP":"143 00","Latitude":50.0060458,"Longitude":14.4104631},"LogoUrl":"https://downloadportal.blob.core.windows.net/k2ngtools/Images/QSPN7ALLYBEZZBPY32LJHAHXRM======.jpg","HasSales":true,"HasServices":true,"TotalRating":null,"IsOpenNow":false,"OpenHoursNotSpecified":false,"MergedOffset":0,"MergedLength":0,"Driving":null},{"GlobalId":"260-25178","Id":"1f63a558-bc31-44e8-a1ca-f796be304975","Name":"UNICAR, spol. s r.o.","Address":{"Street":"Vítkovická 2744/36","City":"Ostrava","District":"T","ZIP":"70200","Latitude":49.826068,"Longitude":18.278151},"LogoUrl":"https://downloadportal.blob.core.windows.net/k2ngtools/Images/PONK7ZGKD5VMZAGFKGSR5ZXPT4======.jpg","HasSales":true,"HasServices":true,"TotalRating":null,"IsOpenNow":false,"OpenHoursNotSpecified":false,"MergedOffset":0,"MergedLength":0,"Driving":null},{"GlobalId":"260-21172","Id":"e64895e6-bd9c-4293-a6fd-783131daa40e","Name":"UNIKOM, a.s.","Address":{"Street":"Hrnčířská 214","City":"Kutná Hora","District":"S","ZIP":"28401","Latitude":49.95392595,"Longitude":15.28773308},"LogoUrl":null,"HasSales":true,"HasServices":true,"TotalRating":null,"IsOpenNow":false,"OpenHoursNotSpecified":false,"MergedOffset":0,"MergedLength":0,"Driving":null},{"GlobalId":"260-30000","Id":"9cba8b51-ea13-4c7c-9368-c6cb1dd38406","Name":"V-Auto Žebrák s.r.o.","Address":{"Street":"Tovární 502","City":"Žebrák","District":"S","ZIP":"26753","Latitude":49.8662947,"Longitude":13.8955553},"LogoUrl":"https://downloadportal.blob.core.windows.net/k2ngtools/Images/JEUYRD7Y3YTBVGDGP54XNELS7A======.png","HasSales":true,"HasServices":true,"TotalRating":null,"IsOpenNow":false,"OpenHoursNotSpecified":false,"MergedOffset":0,"MergedLength":0,"Driving":null},{"GlobalId":"260-24074","Id":"04c96897-03c2-441c-ab9c-6d147281cea3","Name":"Verold Benešov, spol. s r.o.","Address":{"Street":"Červené Vršky 1490","City":"Benešov","District":"S","ZIP":"25601","Latitude":49.7929635,"Longitude":14.6816128},"LogoUrl":"https://downloadportal.blob.core.windows.net/k2ngtools/Images/L7Y3CGMAEXSJ6JTEBLTERSUC4Y======.png","HasSales":true,"HasServices":true,"TotalRating":null,"IsOpenNow":false,"OpenHoursNotSpecified":false,"MergedOffset":0,"MergedLength":0,"Driving":null},{"GlobalId":"260-22969","Id":"baa0ff22-c870-44a6-8063-7102327ec121","Name":"VISTA car","Address":{"Street":"Brněnská 3955","City":"Hodonín","District":"B","ZIP":"69501","Latitude":48.87320463,"Longitude":17.11552441},"LogoUrl":"https://downloadportal.blob.core.windows.net/k2ngtools/Images/QCWRUV2U7YNQ76LKBWDQTJUDUU======.jpg","HasSales":true,"HasServices":true,"TotalRating":null,"IsOpenNow":false,"OpenHoursNotSpecified":false,"MergedOffset":0,"MergedLength":0,"Driving":null},{"GlobalId":"260-2296A","Id":"6251832f-29c9-4bb6-bb0f-929c06b20579","Name":"VISTA car","Address":{"Street":"Strážovská 958","City":"Kyjov","District":"B","ZIP":"69701","Latitude":49.00621,"Longitude":17.1066472},"LogoUrl":"https://downloadportal.blob.core.windows.net/k2ngtools/Images/QCWRUV2U7YNQ76LKBWDQTJUDUU======.jpg","HasSales":false,"HasServices":true,"TotalRating":null,"IsOpenNow":false,"OpenHoursNotSpecified":false,"MergedOffset":0,"MergedLength":0,"Driving":null}]}